[{"latitude":"45.7509549511840560","longitude":"4.8392671207183300","name":"Marseille \/ Université"},{"latitude":"45.7762463810845300","longitude":"4.8716371652356000","name":"Salengro \/ Descartes"},{"latitude":"45.7561939286588800","longitude":"4.8027110791690140","name":"Point du Jour \/ Granges"},{"latitude":"45.7915896614286200","longitude":"4.8433313161068385","name":"Branly \/ Pasteur"},{"latitude":"45.7193988058185000","longitude":"4.8548015762351050","name":"Vénissieux - Levy - Vienne"},{"latitude":"45.7747495364239260","longitude":"4.8879713172874080","name":"Château Gaillard \/ Fort"},{"latitude":"45.7525809002148800","longitude":"4.8463206182240945","name":"Jean Jaurès \/ Guillotière"},{"latitude":"45.7495627067970800","longitude":"4.8759334029685050","name":"Feuillat \/ Lacassagne"},{"latitude":"45.7357952320592900","longitude":"4.8568128186712000","name":"Delore \/ Audibert & Lavirotte"},{"latitude":"45.7571028581681740","longitude":"4.8534807971166600","name":"Paul Bert \/ Garibaldi"},{"latitude":"45.7693730577565400","longitude":"4.8423179538871635","name":"Place Maréchal Lyautey"},{"latitude":"45.7734645659819600","longitude":"4.8002879293936390","name":"Bourbonnais"},{"latitude":"45.8459976867574600","longitude":"4.8324121337552800","name":"Couzon - Centre"},{"latitude":"45.7688513697593600","longitude":"4.8447649388425830","name":"Foch"},{"latitude":"45.7500996433260700","longitude":"4.8280515013551550","name":"Perrache \/ Carnot"},{"latitude":"45.7681141025166000","longitude":"4.8790813175577960","name":"Anatole France \/ Barbusse"},{"latitude":"45.7429248383540640","longitude":"4.9086213384119860","name":"Bron - Centre Nautique"},{"latitude":"45.7847015036764200","longitude":"4.8519081064540370","name":"Cité Internationale - Cinéma"},{"latitude":"45.7588152050466300","longitude":"4.8464532259485145","name":"Place Guichard"},{"latitude":"45.7790305746488640","longitude":"4.8668629009953690","name":"Condorcet"},{"latitude":"45.7588589710478640","longitude":"4.8787495764625985","name":"Saint Exupéry"},{"latitude":"45.7829835939928100","longitude":"4.8906345956727780","name":"Salengro \/ Feyssine"},{"latitude":"45.7579063089064060","longitude":"4.8131349528107470","name":"Place de Trion"},{"latitude":"45.7607097863131200","longitude":"4.8362889729420430","name":"République \/ Stella"},{"latitude":"45.7461030735744740","longitude":"4.8256053939445850","name":"Perrache Est"},{"latitude":"45.7600550578148400","longitude":"4.8616738805899400","name":"Part-Dieu \/ Villette"},{"latitude":"45.7670544551410640","longitude":"4.8270475070640995","name":"Place Gerson"},{"latitude":"45.7535182868894700","longitude":"4.8577376181704960","name":"Faure \/ Danton"},{"latitude":"45.7594863490351000","longitude":"4.8301699554160630","name":"Place Antonin Gourju"},{"latitude":"45.7774932959538900","longitude":"4.8448707260176660","name":"Porte des Enfants du Rhône"},{"latitude":"45.7651240553553600","longitude":"4.9098182197044350","name":"Laurent Bonnevay \/ Astroballe"},{"latitude":"45.7696644422938000","longitude":"4.8246123488633990","name":"Rouville"},{"latitude":"45.7631587956905860","longitude":"4.9004795303651320","name":"Boiron Granger"},{"latitude":"45.7662717372985600","longitude":"4.8274321226910390","name":"Saint-Paul"},{"latitude":"45.7755023590485800","longitude":"4.8350625452914060","name":"Boussange \/ Austerlitz"},{"latitude":"45.8011198081158200","longitude":"4.8252725616689830","name":"Berlioz \/ Chalinel"},{"latitude":"45.7597183207295700","longitude":"4.8899469363178760","name":"GrandClément"},{"latitude":"45.7425795049166550","longitude":"4.8505637556621760","name":"Berthelot \/ Route de Vienne"},{"latitude":"45.7663703493176260","longitude":"4.8650841638710620","name":"Charmettes \/ Bellecombe"},{"latitude":"45.7823734809172700","longitude":"4.8107471737568830","name":"Quai du Commerce"},{"latitude":"45.7663673112669600","longitude":"4.8570018759142295","name":"Brotteaux \/ Vauban"},{"latitude":"45.7534443435600400","longitude":"4.8044009888454050","name":"Albéric Pont"},{"latitude":"45.7534495026210240","longitude":"4.8333645518023690","name":"Gailleton"},{"latitude":"45.7538149056220500","longitude":"4.8598558941293660","name":"Félix Faure \/ Vivier Merle"},{"latitude":"45.7275732848257200","longitude":"4.8311974821956260","name":"Gerland"},{"latitude":"45.7678957694769400","longitude":"4.8198166574203690","name":"Subsistances"},{"latitude":"45.7742004406999600","longitude":"4.8277652218641750","name":"Mairie du 4e"},{"latitude":"45.7201577769260500","longitude":"4.7983317319214030","name":"Oullins - Pont Blanc"},{"latitude":"45.7606085556441100","longitude":"4.8630862498286330","name":"Part-Dieu \/ Francfort"},{"latitude":"45.7707371546228860","longitude":"4.8567521774675420","name":"Tronchet \/ Anatole France"},{"latitude":"45.7297663546006700","longitude":"4.8681665813493630","name":"Place du 8 mai 1945"},{"latitude":"45.7356738897812000","longitude":"4.8277191559612230","name":"Farge \/ Ayasse"},{"latitude":"45.7915736750577340","longitude":"4.8085346353439210","name":"Saint Didier - Pasteur \/ Saint-Cyr"},{"latitude":"45.7588856223001300","longitude":"4.8537678938544730","name":"Place du Lac"},{"latitude":"45.7572612599251600","longitude":"4.8552008564228180","name":"Desaix"},{"latitude":"45.7633837102434300","longitude":"4.8290114774217890","name":"Rue de la Baleine"},{"latitude":"45.7572314152350900","longitude":"4.8589083673700480","name":"Vivier Merle \/ Paul Bert Est"},{"latitude":"45.7684041683728250","longitude":"4.8494967237845850","name":"Mairie du 6e"},{"latitude":"45.7467163314946900","longitude":"4.8674286445260060","name":"Albert Thomas \/ Villon"},{"latitude":"45.7742206902452650","longitude":"4.8642913478558220","name":"Jacques Brel"},{"latitude":"45.7745048729892700","longitude":"4.8484771018513760","name":"Musée Guimet"},{"latitude":"45.7608131946829250","longitude":"4.9206039456886055","name":"Vaulx - La Soie"},{"latitude":"45.7835136793198600","longitude":"4.8712731104104920","name":"Doua \/ Avenue des Arts"},{"latitude":"45.7351509957905000","longitude":"4.8728173875360470","name":"Mairie du 8e"},{"latitude":"45.7619651301154850","longitude":"4.8410534307662090","name":"Quai Augagneur"},{"latitude":"45.7763954484591800","longitude":"4.8670871111508170","name":"Condorcet \/ Galline"},{"latitude":"45.7731863072103200","longitude":"4.8419593354412900","name":"Place d'Helvétie"},{"latitude":"45.7577878804856440","longitude":"4.8614973648418860","name":"Villette"},{"latitude":"45.7444223014223040","longitude":"4.8221428704396105","name":"Sainte-Blandine"},{"latitude":"45.7455815521804800","longitude":"4.8235326732363090","name":"Place de l'Hippodrome"},{"latitude":"45.7594733965948140","longitude":"4.8693428966594270","name":"Place de la Ferrandière"},{"latitude":"45.7723033504795540","longitude":"4.8657606458135480","name":"Gabriel Péri"},{"latitude":"45.7734801071979400","longitude":"4.8213076459729780","name":"Philippe de Lassalle"},{"latitude":"45.7639360244316800","longitude":"4.8659132544557260","name":"Lafayette \/ Inkermann"},{"latitude":"45.7706974838463400","longitude":"4.8499357293643790","name":"Garibaldi"},{"latitude":"45.7339455296300700","longitude":"4.9087206818679405","name":"Bron - Mairie"},{"latitude":"45.7408946957303000","longitude":"4.8683054018251575","name":"Martinière \/ Monplaisir"},{"latitude":"45.7510565465262100","longitude":"4.8480482303453220","name":"Guillotière \/ Madeleine"},{"latitude":"45.7307718508980800","longitude":"4.8873709126801900","name":"Mermoz \/ Pinel"},{"latitude":"45.7600785770139300","longitude":"4.7984076149535470","name":"Champvert"},{"latitude":"45.7499462288418300","longitude":"4.8646503841216660","name":"Dauphiné \/ Saint-Maximin"},{"latitude":"45.7702267691493500","longitude":"4.8631327223602240","name":"Charpennes"},{"latitude":"45.7881700188236600","longitude":"4.8185602866725280","name":"Lyon Métropole"},{"latitude":"45.7247031652649550","longitude":"4.8707659770891900","name":"Etats-Unis \/ Viviani"},{"latitude":"45.7567623213032200","longitude":"4.8339273966533850","name":"Place Antonin Poncet"},{"latitude":"45.7367908138388600","longitude":"4.8411520886055190","name":"Croix Barret \/ Artillerie"},{"latitude":"45.6978120018869000","longitude":"4.7947728497160735","name":"Saint Genis Laval - Médiathèque"},{"latitude":"45.7729113974482800","longitude":"4.8563267813588190","name":"Avenue Verguin"},{"latitude":"45.7227999997408900","longitude":"4.8427060003576160","name":"Techsud"},{"latitude":"45.7774206479390600","longitude":"4.8205384707114510","name":"Philippe de Lassalle \/ Pillement"},{"latitude":"45.7570472666940200","longitude":"4.8653318030820705","name":"Place Sainte Anne"},{"latitude":"45.7485395662598650","longitude":"4.8615417793642550","name":"Université Lyon III"},{"latitude":"45.7537858652435600","longitude":"4.8480424261036825","name":"Saxe \/ Gambetta"},{"latitude":"45.7719119252490800","longitude":"4.8790707067819020","name":"Parc du Centre"},{"latitude":"45.7373337133711400","longitude":"4.8654943125527870","name":"Berthelot \/ Cazeneuve"},{"latitude":"45.7559670655560100","longitude":"4.8774136476772200","name":"Maisons Neuves"},{"latitude":"45.7536532555808650","longitude":"4.8892423184432870","name":"Place Antoinette"},{"latitude":"45.7783682080048800","longitude":"4.8796732813004160","name":"Salengro \/ Vaillant"},{"latitude":"45.7511124102764400","longitude":"4.8555850883006510","name":"Gambetta \/ Jusserand"},{"latitude":"45.7140014190252940","longitude":"4.8065443341113525","name":"Oullins - Mairie"},{"latitude":"45.7587390821938500","longitude":"4.8340765154131455","name":"République \/ Maupin"},{"latitude":"45.7722014692572260","longitude":"4.8379117929264730","name":"Quai Lassagne"},{"latitude":"45.7578829540715000","longitude":"4.9211417117922070","name":"Poudrette \/ Musset"},{"latitude":"45.7473561743230900","longitude":"4.8359996982041680","name":"Centre Berthelot"},{"latitude":"45.8050913402650000","longitude":"4.8847438731991380","name":"Rillieux - Canellas"},{"latitude":"45.7296761340645800","longitude":"4.8541819412364090","name":"Moulin à Vent"},{"latitude":"45.7794441107438300","longitude":"4.8740901733285210","name":"Einstein \/ 11 novembre 1918"},{"latitude":"45.7857755308468400","longitude":"4.8337134215891260","name":"Caluire - Gare de Cuire"},{"latitude":"45.7439143269094760","longitude":"4.8414244448529230","name":"Jaurès \/ Lagrange"},{"latitude":"45.7525394294912600","longitude":"4.8942674717120900","name":"Docteur Long \/ Aubépins"},{"latitude":"45.7916701826039940","longitude":"4.8235970239637440","name":"Caluire \/ La Rochette"},{"latitude":"45.7525921437139600","longitude":"4.8557101486887975","name":"Place Bir-Hakeim"},{"latitude":"45.7557687140506700","longitude":"4.8407327899664360","name":"Place Raspail"},{"latitude":"45.7669053920040840","longitude":"4.8701613960086180","name":"Anatole France \/ Alsace"},{"latitude":"45.7544732763091350","longitude":"4.8330110846859420","name":"Sala \/ Charité"},{"latitude":"45.7698294895997860","longitude":"4.8896313501762110","name":"Anatole France"},{"latitude":"45.7437118135706000","longitude":"4.8473688829598505","name":"Berthelot \/ Garibaldi"},{"latitude":"45.7645636665294100","longitude":"4.8923336071821140","name":"La Perralière"},{"latitude":"45.7924777385859400","longitude":"4.8205782575315625","name":"Carret \/ Sédaillan"},{"latitude":"45.7760850428762750","longitude":"4.7997376609700090","name":"Marietton Ouest"},{"latitude":"45.7481832938431700","longitude":"4.8969570575460010","name":"Hôpital Neurologique"},{"latitude":"45.7353725112499350","longitude":"4.8895389263694160","name":"Laënnec \/ Pinel"},{"latitude":"45.7396275873331000","longitude":"4.8150259306438120","name":"Confluence \/ Docks"},{"latitude":"45.7568084876169440","longitude":"4.8283743801395120","name":"Sala \/ Rue du Plat"},{"latitude":"45.7677346863698560","longitude":"4.8321350621908300","name":"Terreaux \/ Terme"},{"latitude":"45.7578618343521100","longitude":"4.8683505318832685","name":"Sacré Coeur"},{"latitude":"45.7413337186004100","longitude":"4.8855408242791200","name":"Rockfeller \/ Esquirol"},{"latitude":"45.7361815820860700","longitude":"4.8153350287499040","name":"Sucrière"},{"latitude":"45.7604837438977800","longitude":"4.8265650503972600","name":"Saint-Jean"},{"latitude":"45.7738494367907200","longitude":"4.8938448095574300","name":"Greuze"},{"latitude":"45.7671914150099100","longitude":"4.9005990995120360","name":"Voyant \/ Chambord"},{"latitude":"45.7316833148739000","longitude":"4.8741275326105120","name":"Santy \/ Beauvisage"},{"latitude":"45.7539631929670600","longitude":"4.8673532946259150","name":"Place Rouget de L'Isle"},{"latitude":"45.7669095802662650","longitude":"4.8589921673125620","name":"Gare des Brotteaux"},{"latitude":"45.7579070732360900","longitude":"4.9108067086686680","name":"Bel Air \/ Les Brosses"},{"latitude":"45.7356503881221000","longitude":"4.8530426544700740","name":"Place Lebret"},{"latitude":"45.7598976512354200","longitude":"4.8575730314142140","name":"Part-Dieu \/ Cuirassiers"},{"latitude":"45.7715543267274200","longitude":"4.8903742138377730","name":"Montgolfier \/ Château Gaillard"},{"latitude":"45.7615909258196600","longitude":"4.8504811626495200","name":"Les Halles"},{"latitude":"45.7632560325953860","longitude":"4.7786100656705530","name":"Tassin - Tuileries"},{"latitude":"45.7893151875845100","longitude":"4.7991603409726270","name":"Balmont"},{"latitude":"45.7644003130587800","longitude":"4.9192757859473670","name":"Vaulx - Poudrette \/ La Soie"},{"latitude":"45.7688421415694200","longitude":"4.8842920788240150","name":"Anatole France \/ Zola"},{"latitude":"45.7709906411448560","longitude":"4.8075804142518950","name":"Place de la Rhodiacéta"},{"latitude":"45.7659879833823500","longitude":"4.8620922782007510","name":"Viabert \/ Thiers"},{"latitude":"45.7684122613764600","longitude":"4.8590705567383440","name":"Place Jules Ferry"},{"latitude":"45.7790639863242460","longitude":"4.8714964631896150","name":"11 novembre \/ Gaston Berger"},{"latitude":"45.7530043530221000","longitude":"4.8502474272199690","name":"Place Aristide Briand"},{"latitude":"45.7707838400683800","longitude":"4.8729593888672900","name":"République"},{"latitude":"45.7797251519675600","longitude":"4.8347072824510775","name":"Place Commandant Arnaud"},{"latitude":"45.7454305152808000","longitude":"4.8477802774631010","name":"CROUS"},{"latitude":"45.7647991690610000","longitude":"4.8842705328109050","name":"4 août 1789"},{"latitude":"45.7197119647566300","longitude":"4.8885353662634170","name":"Vénissieux - Parilly"},{"latitude":"45.7541677716671700","longitude":"4.9052920801326070","name":"Place d'Espagne \/ Stade Kruger"},{"latitude":"45.7583918194315600","longitude":"4.8856094344245130","name":"Perrin \/ Jean Jaurès"},{"latitude":"45.7398132348896800","longitude":"4.8403073886228570","name":"Jaurès \/ Gerland"},{"latitude":"45.7836371650547900","longitude":"4.7945253084995630","name":"Allée de l'Europe"},{"latitude":"45.7660755301366000","longitude":"4.8986104854167065","name":"4 août 1789 \/ Pressensé"},{"latitude":"45.7733270382747500","longitude":"4.8519894989151780","name":"Boulevard des Belges"},{"latitude":"45.7426115005543960","longitude":"4.8204716703055040","name":"Patinoire Charlemagne"},{"latitude":"45.7559666422450850","longitude":"4.8189064482919700","name":"Saint-Just"},{"latitude":"45.7386714403411200","longitude":"4.8781174224582780","name":"Longefer \/ Krüger"},{"latitude":"45.7536107053595200","longitude":"4.8382209724032040","name":"Piscine du Rhône"},{"latitude":"45.7667671045630000","longitude":"4.8329314879659680","name":"Terreaux \/ Chenavard"},{"latitude":"45.7362679934923260","longitude":"4.8797373771291825","name":"Bataille \/ Krüger"},{"latitude":"45.7637960125263300","longitude":"4.8470620002854570","name":"Créqui \/ Lafayette"},{"latitude":"45.7768977023466300","longitude":"4.8764587904000850","name":"Salengro \/ Courteline"},{"latitude":"45.7593422663364460","longitude":"4.8422275870211210","name":"Liberté \/ Part-Dieu"},{"latitude":"45.7332717801444000","longitude":"4.8786008569623750","name":"Mermoz \/ Michelet"},{"latitude":"45.7276967807767200","longitude":"4.8373820902736710","name":"Baldassini \/ Gerland"},{"latitude":"45.7697822121574100","longitude":"4.8126762195854050","name":"Conservatoire"},{"latitude":"45.7273693332767340","longitude":"4.8146354766198370","name":"La Mulatière - Aquarium"},{"latitude":"45.7828282303757100","longitude":"4.8072963588022790","name":"Saint-Cyr"},{"latitude":"45.7243483551230100","longitude":"4.8268214305884180","name":"Parc de Gerland"},{"latitude":"45.7806441632908400","longitude":"4.8834970167362710","name":"Croix Luizet"},{"latitude":"45.7638977674247500","longitude":"4.7927143081079860","name":"Champvert"},{"latitude":"45.7294551265970500","longitude":"4.8441778720101850","name":"Lacour \/ Artillerie"},{"latitude":"45.7815755185206100","longitude":"4.8328577220510200","name":"Place Joannès Ambre"},{"latitude":"45.7676109468329100","longitude":"4.8366570054128440","name":"Opéra"},{"latitude":"45.7518482427555360","longitude":"4.8247344893159925","name":"Joffre \/ Vaubecour"},{"latitude":"45.7598862786474200","longitude":"4.8357987999345910","name":"Childebert \/ Rivière"},{"latitude":"45.7571997023265400","longitude":"4.8404991375424880","name":"Augagneur \/ Fosse aux Ours"},{"latitude":"45.7526125818453550","longitude":"4.8587710033051470","name":"Philomène Magnin"},{"latitude":"45.7786288989070300","longitude":"4.8071200280976580","name":"Masaryk \/ Saint-Cyr"},{"latitude":"45.7573393130977700","longitude":"4.8585122373993705","name":"Vivier Merle \/ Paul Bert Ouest"},{"latitude":"45.7144103841041840","longitude":"4.9310143156708940","name":"Saint Priest - Parc Technologique"},{"latitude":"45.7483207051236600","longitude":"4.8759239595508280","name":"Friche RVI"},{"latitude":"45.7502533119060360","longitude":"4.8579250300630620","name":"Musée Africain"},{"latitude":"45.7840513436847400","longitude":"4.8970859241187770","name":"Verdun \/ Desgrand"},{"latitude":"45.7257547271142850","longitude":"4.8583509977388920","name":"Vénissieux - Place Romand"},{"latitude":"45.7495788810534300","longitude":"4.8529655050157780","name":"Place Stalingard"},{"latitude":"45.7459165775636100","longitude":"4.8171736085201430","name":"Bayard \/ Rambaud"},{"latitude":"45.7543008100597300","longitude":"4.8634641019603990","name":"Kimmerling - Faure"},{"latitude":"45.7703105281291940","longitude":"4.8620024989211670","name":"Charles Hernu"},{"latitude":"45.7578416796382400","longitude":"4.8261054516922880","name":"Place Crépu"},{"latitude":"45.7743716157555500","longitude":"4.8328150087604630","name":"Aveyron"},{"latitude":"45.7595776564178540","longitude":"4.8827081207421840","name":"Mémoire et Société"},{"latitude":"45.7756749996432200","longitude":"4.8053036651209080","name":"Place Valmy"},{"latitude":"45.7530892095642200","longitude":"4.8298071448327240","name":"Remparts d'Ainay"},{"latitude":"45.7607774131537200","longitude":"4.8526789906473330","name":"Servient \/ Garibaldi"},{"latitude":"45.7340200917966400","longitude":"4.8629023792941540","name":"Cazeneuve"},{"latitude":"45.7402806526508460","longitude":"4.8320593704251730","name":"Lycée Louise Labé"},{"latitude":"45.8766089913122200","longitude":"4.8386237264875970","name":"Neuville - Quai Pasteur"},{"latitude":"45.7550605472608750","longitude":"4.8713973381549930","name":"Faure \/ Meynis"},{"latitude":"45.7575642739996500","longitude":"4.8461181734350030","name":"Saxe \/ Moncey"},{"latitude":"45.7809940664741300","longitude":"4.8712223213573510","name":"Doua \/ Gaston Berger"},{"latitude":"45.7629790120815440","longitude":"4.8550066229888000","name":"Part-Dieu \/ Deruelle"},{"latitude":"45.7742408280787800","longitude":"4.8056660114147770","name":"Mairie du 9e"},{"latitude":"45.7605212388028900","longitude":"4.9059454396164750","name":"Blum \/ Faÿs"},{"latitude":"45.7794643121307400","longitude":"4.8915809514291190","name":"Bouvier"},{"latitude":"45.7059819724876400","longitude":"4.9009848506091010","name":"Saint Priest - Cité Berliet"},{"latitude":"45.7796937078335100","longitude":"4.8600085938999790","name":"11 novembre"},{"latitude":"45.7787675773143300","longitude":"4.8410695622109970","name":"Place Adrien Godien"},{"latitude":"45.7154529520501360","longitude":"4.8782350614798360","name":"Vénissieux - Joliot Curie \/ Sembat"},{"latitude":"45.7738201179439200","longitude":"4.8095603029641690","name":"Place du Port Mouton"},{"latitude":"45.7226607315060460","longitude":"4.9152084999909755","name":"Bron - Université"},{"latitude":"45.7854707644412200","longitude":"4.8478421222935550","name":"Caluire - Saint-Clair"},{"latitude":"45.7364796056891400","longitude":"4.8698054320071750","name":"Jean XXIII \/ Mermoz"},{"latitude":"45.7614496449619350","longitude":"4.8724655049634790","name":"Institut d'Art contemporain"},{"latitude":"45.7544402430766440","longitude":"4.8853489189380230","name":"Place de la Reconnaissance"},{"latitude":"45.7574175254861500","longitude":"4.8370623720287080","name":"Hôtel Dieu \/ Pont de la Guillotière"},{"latitude":"45.7347254902347200","longitude":"4.8354967607642045","name":"Jaurès \/ Bollier"},{"latitude":"45.7123448014944400","longitude":"4.8552741231339970","name":"Saint Fons - Arsenal"},{"latitude":"45.7459637288850100","longitude":"4.8511961077823750","name":"Parc Blandan"},{"latitude":"45.7548790164649200","longitude":"4.8436750818920180","name":"Place Gabriel Péri"},{"latitude":"45.7838816142830540","longitude":"4.8521404034163990","name":"Musée d'Art Contemporain"},{"latitude":"45.7317535548177500","longitude":"4.8339617941232040","name":"Debourg"},{"latitude":"45.7470826073157540","longitude":"4.8601908518953540","name":"Clinique Montplaisir"},{"latitude":"45.7875097567311800","longitude":"4.8144211278496750","name":"Quai Paul Sédaillan"},{"latitude":"45.7717570855734000","longitude":"4.8446036357483555","name":"Place Puvis de Chavannes"},{"latitude":"45.7529160218789240","longitude":"4.8638526893825510","name":"Hachette"},{"latitude":"45.7467662258473740","longitude":"4.8420506993495060","name":"Servant \/ Jaboulay"},{"latitude":"45.7084437290321550","longitude":"4.8548610775585280","name":"Saint Fons - 4 chemins"},{"latitude":"45.7565273368784000","longitude":"4.7966121788894250","name":"Place des Compagnons de la chanson"},{"latitude":"45.7308422388673200","longitude":"4.8237404067653960","name":"Halle Tony Garnier"},{"latitude":"45.7366744242415300","longitude":"4.9171004856320100","name":"Bron - Place Curial"},{"latitude":"45.7607516950581540","longitude":"4.8343042285358890","name":"Jacobins"},{"latitude":"45.7660850668592000","longitude":"4.8328335830568180","name":"Meissonier"},{"latitude":"45.7512270521822700","longitude":"4.8268908354867040","name":"Place Carnot"},{"latitude":"45.7434140947079900","longitude":"4.8158543610390250","name":"Confluence \/ Darse"},{"latitude":"45.7520011769432900","longitude":"4.8216617983516280","name":"Fulchiron"},{"latitude":"45.7634225385927200","longitude":"4.8321008544256510","name":"Saint Antoine \/ Grenette"},{"latitude":"45.7445140498693900","longitude":"4.8267751858799750","name":""},{"latitude":"45.7782780129806140","longitude":"4.8106317576202680","name":"Pont Masaryk"},{"latitude":"45.7375180973509360","longitude":"4.8375089199170210","name":"Jean Jaurès"},{"latitude":"45.7458332337286600","longitude":"4.8706387106502870","name":"Institut Lumière"},{"latitude":"45.7314272671117600","longitude":"4.8600379663129870","name":"Francis de Pressenssé"},{"latitude":"45.7704769200645740","longitude":"4.8009004832411430","name":"Masset \/ Saint-Pierre de Vaise"},{"latitude":"45.8324657183306240","longitude":"4.8487792326838310","name":"Fontaines S\/S - Quai JB Simon"},{"latitude":"45.7170299434914200","longitude":"4.8141359805783805","name":"Oullins - Gare"},{"latitude":"45.7754224668984700","longitude":"4.8178899295525035","name":"Chazière"},{"latitude":"45.7557642719574800","longitude":"4.8915301676718470","name":"Gare de Villeurbanne"},{"latitude":"45.7711232449440600","longitude":"4.8850235984658990","name":"Lherminier \/ Pressensé"},{"latitude":"45.7691684753850800","longitude":"4.8967695846255020","name":"Pressensé"},{"latitude":"45.7298058652087600","longitude":"4.8381384383404170","name":"Challemel Lacour \/ Gerland"},{"latitude":"45.7596453088344100","longitude":"4.8482665597083550","name":"Bourse du travail"},{"latitude":"45.7530445329675700","longitude":"4.8282455395393775","name":"Place Ampère"},{"latitude":"45.7680704202145800","longitude":"4.8871237200591935","name":"Zola \/ France"},{"latitude":"45.7766422715883900","longitude":"4.9023610707870110","name":"Saint Jean \/ Epi de Blé"},{"latitude":"45.7760751390863940","longitude":"4.8325539207543910","name":"Place de la Croix-Rousse"},{"latitude":"45.7444461798116300","longitude":"4.8608871751443760","name":"Dumont \/ Jouvet"},{"latitude":"45.7503447975739450","longitude":"4.8450482534996375","name":"Jaurès \/ Thibaudière"},{"latitude":"45.7758995112138400","longitude":"4.8253789620711200","name":"Jacquart \/ Denfert-Rochereau"},{"latitude":"45.7744984646734300","longitude":"4.8740523266943320","name":"Colin \/ Perroncel"},{"latitude":"45.7680236126546500","longitude":"4.8317412517184160","name":"Place de la Paix"},{"latitude":"45.7630769295670000","longitude":"4.8342866883470440","name":"Place Regaud"},{"latitude":"45.7750890702448960","longitude":"4.7786729160837340","name":"Ecully - Mairie"},{"latitude":"45.7546405115265300","longitude":"4.7881488839855880","name":"Ménival \/ Joliot Curie"},{"latitude":"45.7285181510160800","longitude":"4.8773059343942400","name":"Paul Santy"},{"latitude":"45.7377409586890200","longitude":"4.8244875157097110","name":"Parc des Berges"},{"latitude":"45.7620516689039150","longitude":"4.8685003507160690","name":"Patinoire Baraban"},{"latitude":"45.7740806705343900","longitude":"4.8251597121983645","name":"Tabareau"},{"latitude":"45.7548124485154400","longitude":"4.8575743726010305","name":"Place Danton"},{"latitude":"45.7637594783418750","longitude":"4.8437773405191870","name":"Lafayette \/ Corneille"},{"latitude":"45.7823061128328350","longitude":"4.8493439808167290","name":"Cité Internationale \/ Interpol"},{"latitude":"45.7778649152535660","longitude":"4.8842442857728360","name":"Château Gaillard \/ Bienvenus"},{"latitude":"45.7621739970214800","longitude":"4.8359706936868220","name":"République \/ Ferrandière"},{"latitude":"45.7481869061751400","longitude":"4.8805939581712150","name":"Place Henri"},{"latitude":"45.7403259296418700","longitude":"4.8741942706838780","name":"Jean XXIII"},{"latitude":"45.7453008083141900","longitude":"4.8890420355008900","name":"Trarieux \/ Lacassagne"},{"latitude":"45.7620132943614000","longitude":"4.8027598903443770","name":"Buyer \/ Apollinaire"},{"latitude":"45.7591435230511500","longitude":"4.8759935561091980","name":"Place Marengo"},{"latitude":"45.7670909450657100","longitude":"4.8924286413845515","name":"Métro Flachet"},{"latitude":"45.7659547300349500","longitude":"4.8311781246444845","name":"Pêcherie"},{"latitude":"45.7844851872384300","longitude":"4.8774042325766300","name":"Doua \/ Rue des sports"},{"latitude":"45.7753988102813600","longitude":"4.8802630912578130","name":"Vaillant \/ Perroncel"},{"latitude":"45.7567552283432900","longitude":"4.7832459078446250","name":"Ménival \/ Eisenhower"},{"latitude":"45.7478194334711700","longitude":"4.8722698711079255","name":"Rebatel \/ Saint-Maximin"},{"latitude":"45.7700978432658200","longitude":"4.8766904175328010","name":"Zola \/ Passage Rey"},{"latitude":"45.7696005888254260","longitude":"4.8376084367310750","name":"Place Tolozan"},{"latitude":"45.7599809590692000","longitude":"4.8444896754890480","name":"Corneille \/ Servient"},{"latitude":"45.7856324623545000","longitude":"4.8824104015349030","name":"IUT - Feyssine"},{"latitude":"45.7080855971723300","longitude":"4.8617756041383320","name":"Saint Fons - Théatre"},{"latitude":"45.7865084443620300","longitude":"4.8114412174203720","name":"Vaise Docks"},{"latitude":"45.7435678516368260","longitude":"4.8701017463457850","name":"Lumière \/ Trouilhet"},{"latitude":"45.7974121962714450","longitude":"4.8290463533634590","name":"L'Ile Barbe"},{"latitude":"45.7904088071307300","longitude":"4.8163493917942380","name":"Mangini"},{"latitude":"45.7817001067679500","longitude":"4.8206000461275870","name":"Grégory Coupet"},{"latitude":"45.7793865753173900","longitude":"4.8630954295037990","name":"Rossellini \/ 11 Novembre"},{"latitude":"45.7666921938824100","longitude":"4.8520859812468150","name":"Garibaldi \/ Vauban"},{"latitude":"45.7519114393107300","longitude":"4.8437864046911105","name":"Gryphe \/ Montesquieu"},{"latitude":"45.7730995725331500","longitude":"4.8078137222645940","name":"Saint Pierre de Vaise"},{"latitude":"45.7400516465032750","longitude":"4.8594164128821960","name":"Place Mendès France"},{"latitude":"45.7722538415304900","longitude":"4.8194608620100040","name":"Croix Rousse \/ Perfetti"},{"latitude":"45.7517901355474700","longitude":"4.8526079660087520","name":"Gambetta \/ Garibaldi"},{"latitude":"45.7431645419377450","longitude":"4.8341688750746420","name":"Quartier Général Frère"},{"latitude":"45.7848181552653900","longitude":"4.8565116142349005","name":"Cité Internationale - Résidence hôtelière"},{"latitude":"45.7599398325897200","longitude":"4.8320716113863760","name":"Célestins"},{"latitude":"45.7862776558451700","longitude":"4.9268855599077890","name":"Place Boissier"},{"latitude":"45.7822165054530900","longitude":"4.8769550250054060","name":"INSA"},{"latitude":"45.7781718162778500","longitude":"4.9205167112977890","name":"Vaulx - Hôtel de ville"},{"latitude":"45.7485202867305600","longitude":"4.8405245716725130","name":"Bancel \/ Chevreul"},{"latitude":"45.7322180106596860","longitude":"4.8651415367367150","name":"Etats-Unis \/ Lévigne"},{"latitude":"45.7797553671142550","longitude":"4.8276484010879560","name":"Hénon"},{"latitude":"45.7254037172008000","longitude":"4.8812948922096580","name":"Stade Vuillermet"},{"latitude":"45.8749934925375340","longitude":"4.8330021360822780","name":"Albigny - Gare"},{"latitude":"45.7085339720955660","longitude":"4.8870248117095900","name":"Vénissieux - Gare"},{"latitude":"45.7644829391731900","longitude":"4.8779206263003290","name":"4 Août \/ Racine"},{"latitude":"45.7636407030235000","longitude":"4.8731410878807795","name":"Totem"},{"latitude":"45.7383023357079350","longitude":"4.8627327832044810","name":"Berthelot \/ Villon"},{"latitude":"45.7879516402910550","longitude":"4.8530543333992190","name":"Caluire - Passerelle de la Paix"},{"latitude":"45.7512052508819200","longitude":"4.8848204636500700","name":"Place Louise"},{"latitude":"45.7620553014781300","longitude":"4.8332059556379780","name":"Mercière \/ Ferrandière"},{"latitude":"45.7465601730305500","longitude":"4.8423412580916120","name":"Mairie du 7e"},{"latitude":"45.7472487338214600","longitude":"4.8652857830315160","name":"Sans Souci"},{"latitude":"45.7504814834310240","longitude":"4.7887741211031210","name":"Valdo \/ Rivet"},{"latitude":"45.7718733296366760","longitude":"4.9557667876110880","name":"Décines - Centre"},{"latitude":"45.7854214249623800","longitude":"4.8541240727107640","name":"Cité Internationale"},{"latitude":"45.7529863435116100","longitude":"4.8414152874617790","name":"Marseille \/ Félissent"},{"latitude":"45.7450177556259450","longitude":"4.8664326009099320","name":"Frères Lumière"},{"latitude":"45.7772955373720100","longitude":"4.8033117445656650","name":"Théâtre Nouvelle Génération"},{"latitude":"45.7571184153073900","longitude":"4.8999931509132550","name":"Primat \/ Decorps"},{"latitude":"45.7579850990088100","longitude":"4.8345938219838450","name":"Bellecour \/ République"},{"latitude":"45.7776173765049850","longitude":"4.8345009421112760","name":"Place Bertone"},{"latitude":"45.7605989970817800","longitude":"4.9006968059950955","name":"Baratin"},{"latitude":"45.7746311098016750","longitude":"4.8134162571603990","name":"Birmingham"},{"latitude":"45.7529175454410300","longitude":"4.8988991727177510","name":"Kimmerling"},{"latitude":"45.7333083359277900","longitude":"4.8189203135366740","name":"Musée des Confluences"},{"latitude":"45.7703894302220250","longitude":"4.8142456674237000","name":"Conservatoire bis"},{"latitude":"45.7495170788471200","longitude":"4.8872857232192940","name":"Place du Château"},{"latitude":"45.7618051903302860","longitude":"4.8807224046277390","name":"Tolstoï \/ Florian"},{"latitude":"45.7701340720176050","longitude":"4.8051580030149460","name":"Sergent Berthet \/ Gorge de Loup"},{"latitude":"45.7609213906398600","longitude":"4.8451935986950010","name":"Saxe \/ Dunoir"},{"latitude":"45.7419115491076800","longitude":"4.8939591141013690","name":"Vinatier"},{"latitude":"45.7362995122816000","longitude":"4.8836816883227290","name":"Ambroise Paré"},{"latitude":"45.7760264913711400","longitude":"4.8296210962258830","name":"Place des tapis"},{"latitude":"45.7707410676207300","longitude":"4.8673338286937360","name":"Charmettes \/ Zola"},{"latitude":"45.7300799170408600","longitude":"4.8278229564284700","name":"Place de l'Ecole"},{"latitude":"45.7583623960292900","longitude":"4.8210866415482530","name":"Théâtre Romain"},{"latitude":"45.7514132273513000","longitude":"4.8363931815987780","name":"Universités Lyon III \/ Lyon II"},{"latitude":"45.7668296196242750","longitude":"4.8411393393513280","name":"Quai Sarrail"},{"latitude":"45.7278718558835000","longitude":"4.8634420589052640","name":"Beauvisage \/ Préssensé"},{"latitude":"45.7404860034671760","longitude":"4.8880825075933510","name":"BioParc"},{"latitude":"45.7620370806926700","longitude":"4.8288896824580405","name":"Quai Romain Rolland"},{"latitude":"45.7762290755166300","longitude":"4.8626206255202240","name":"Tonkin"},{"latitude":"45.7682183165922000","longitude":"4.8276217044711550","name":"Martinière"},{"latitude":"45.7793264516606800","longitude":"4.8203031984414520","name":"Place Flammarion"},{"latitude":"45.8159701108686600","longitude":"4.8870434508176660","name":"Rillieux - Loup Pendu"},{"latitude":"45.7648582723532300","longitude":"4.8415654714910220","name":"Préfecture \/ Sarrail"},{"latitude":"45.7422568774361760","longitude":"4.8603720894672350","name":"Saint-Romain \/ Berliet"},{"latitude":"45.7386358835747000","longitude":"4.8524001839789180","name":"Pierre Delore"},{"latitude":"45.7477327368804800","longitude":"4.8516273700582800","name":"Garibaldi \/ Domer"},{"latitude":"45.7640576127189100","longitude":"4.8499305460757520","name":"Les Halles"},{"latitude":"45.7485374331787540","longitude":"4.8432493337468060","name":"Jaurès \/ Université"},{"latitude":"45.7649456438753100","longitude":"4.9010152745308350","name":"Cusset"},{"latitude":"45.7405383152039140","longitude":"4.8191795184368050","name":"Confluence Hôtel de Région"},{"latitude":"45.7672004172203160","longitude":"4.8363916853563290","name":"Pizay"},{"latitude":"45.7550310886452600","longitude":"4.8077850541519440","name":"Charcot \/ Résidence universitaire"},{"latitude":"45.7826362574796000","longitude":"4.8255591851847730","name":"Clos Savaron"},{"latitude":"45.7279188576411300","longitude":"4.8235600814059090","name":"Cité Scolaire Internationale"},{"latitude":"45.7657655924629200","longitude":"4.8447318928504440","name":"Place Edgar Quinet"},{"latitude":"45.7434156767836340","longitude":"4.8789206164428370","name":"Place d'Arsonval"},{"latitude":"45.7628598508923400","longitude":"4.8622869000871980","name":"Villette \/ St-Antoine"},{"latitude":"45.7696601321996100","longitude":"4.8523727828559995","name":"Masséna"},{"latitude":"45.7729266206145400","longitude":"4.8372695440684375","name":"Chazette Lassagne"},{"latitude":"45.7865247393491300","longitude":"4.7970709023310110","name":"Andréi Sakharov"},{"latitude":"45.7295008043116340","longitude":"4.8297016085827410","name":"Place des Pavillons"},{"latitude":"45.7490803589590100","longitude":"4.8477399426535540","name":"Place St Louis"},{"latitude":"45.7549458810740000","longitude":"4.8124212248457430","name":"Sainte-Irénée"},{"latitude":"45.8308663282951700","longitude":"4.8469785074774770","name":"Collonges - Gare"},{"latitude":"45.8708762461699200","longitude":"4.8395985373186360","name":"Neuville - Stade"},{"latitude":"45.7675173783310900","longitude":"4.8740105549119060","name":"Ecole de musique"},{"latitude":"45.7846110498866350","longitude":"4.8596391471386800","name":"Cité Internationale - Tête d'Or Nord"},{"latitude":"45.7692274364669060","longitude":"4.8804622522382600","name":"Gratte-Ciel"},{"latitude":"45.7692658462512900","longitude":"4.8300797887695630","name":"Place Sathonay"},{"latitude":"45.7492533954913900","longitude":"4.8298441257520310","name":"Charité \/ Récamier"},{"latitude":"45.7570697600648660","longitude":"4.9273216112656590","name":"Vaulx - Bibliothèque"},{"latitude":"45.7997914275755500","longitude":"4.8196018687552730","name":"Saint Cyr"},{"latitude":"45.7665803442908100","longitude":"4.8202302422982600","name":"L'Homme de la Roche"},{"latitude":"45.7668331420973300","longitude":"4.8801151194357875","name":"Mairie de Villeurbanne"},{"latitude":"45.7658113822040560","longitude":"4.8368957414205630","name":"Ampère \/ Bourse"},{"latitude":"45.7743568286995240","longitude":"4.8591545857608360","name":"Stalingrad"},{"latitude":"45.7640723503116150","longitude":"4.8355253578885975","name":"République \/ Poulaillerie"},{"latitude":"45.7241420539186200","longitude":"4.8541764434151110","name":"Hôpital Saint-Jean de Dieu"},{"latitude":"45.7367572482025800","longitude":"4.8341384445028766","name":"Beauvoir \/ Marot"},{"latitude":"45.7520997282193140","longitude":"4.9146430086846320","name":"Place de la paix"},{"latitude":"45.7494176952947240","longitude":"4.8347520047111060","name":"Saint-Luc \/ Saint-Joseph"},{"latitude":"45.7466748285384950","longitude":"4.8444434656856060","name":"Domer \/ Chevreul"},{"latitude":"45.7496172707888960","longitude":"4.7955310931658570","name":"La Salette"},{"latitude":"45.7381400560294900","longitude":"4.8868803087115330","name":"Claude Bernard Lyon I"},{"latitude":"45.7528275113150600","longitude":"4.8687687708041860","name":"Sisley \/  Dauphiné"},{"latitude":"45.8354059997715200","longitude":"4.8457000001885610","name":"Fontaines S\/S - Gambetta"},{"latitude":"45.7479691410901740","longitude":"4.8248617280093150","name":"Place des Archives"},{"latitude":"45.7615279698755500","longitude":"4.8956902199613600","name":"Lycée Marie Curie"},{"latitude":"45.7710182884515100","longitude":"4.7964503487575510","name":"Piscine de Vaise"},{"latitude":"45.7643336975612060","longitude":"4.8534921297061950","name":"Récamier \/ Tête d'Or"},{"latitude":"45.7618201068858800","longitude":"4.8861338655236200","name":"Docteur Damidot"},{"latitude":"45.7593809563465260","longitude":"4.8353992022816500","name":"République \/ Paufique"},{"latitude":"45.7495654052048600","longitude":"4.8008960240920420","name":"Sainte Foy - Place Saint-Luc"},{"latitude":"45.7700015740910800","longitude":"4.8292695053207500","name":"Carmélites"},{"latitude":"45.7804458217109400","longitude":"4.9044888457892960","name":"Villeurbanne Saint-Jean"},{"latitude":"45.7576523213066860","longitude":"4.8834709512316210","name":"Jaurès \/ Saint Exupéry"},{"latitude":"45.7766967138823300","longitude":"4.8595230519892390","name":"Stalingrad \/ Meliès"},{"latitude":"45.7670410048109700","longitude":"4.8342839059717140","name":"Terreaux \/ Beaux Arts"},{"latitude":"45.7581569109321860","longitude":"4.8304346949094690","name":"Bellecour \/ Saint Exupéry"},{"latitude":"45.7627511569952000","longitude":"4.8524277723450730","name":"Part-Dieu \/ Garibaldi"},{"latitude":"45.7573003219205000","longitude":"4.8150900113095240","name":"Place Varillon (funiculaire St-Just)"},{"latitude":"45.7566983441751900","longitude":"4.8484034857557150","name":"Créqui \/ Voltaire"},{"latitude":"45.7479327825068000","longitude":"4.8563371818097670","name":"Guillotière \/ Veyron"},{"latitude":"45.7032558571012300","longitude":"4.8212003761276780","name":"Pierre Bénite - Europe"},{"latitude":"45.7324819782407700","longitude":"4.8534099750018610","name":"Vienne \/ Montagny"},{"latitude":"45.7797819839255400","longitude":"4.8046653309593905","name":"Gare de Vaise"},{"latitude":"45.7452926164535000","longitude":"4.8716789632578010","name":"Place Ambroise Courtois"},{"latitude":"45.7742151784181300","longitude":"4.8675042131350820","name":"Piaton \/ Condorcet"},{"latitude":"45.7673654785190900","longitude":"4.8056276995192775","name":"Gorge de Loup"},{"latitude":"45.7646815056712300","longitude":"4.8289833265225160","name":"Place Ennemond Fousseret"},{"latitude":"45.7547065642496240","longitude":"4.8534044474099280","name":"Garibaldi \/ Pensionnat"},{"latitude":"45.7413487229911060","longitude":"4.8797231637591720","name":"Laënnec"}]