[{"latitude":48.8359484574,"longitude":2.6299028952,"stop_name":"RUE DE LA FERME"},{"latitude":48.8467902961,"longitude":2.61369101,"stop_name":"COLLEGE LE LUZARD"},{"latitude":49.0119496186,"longitude":2.5332905562,"stop_name":"ZONE TECHNIQUE"},{"latitude":49.0114652199,"longitude":2.5155295064,"stop_name":"ENTRETIEN NORD"},{"latitude":48.8500655011,"longitude":2.4993952859,"stop_name":"AVRON"},{"latitude":48.8568322265,"longitude":2.5301163637,"stop_name":"PLACE DE LA RESISTANCE"},{"latitude":48.8706786201,"longitude":2.5764889598,"stop_name":"AVENUE DES MARTYRS"},{"latitude":48.8744671511,"longitude":2.5829373752,"stop_name":"CHELLES - GOURNAY RER"},{"latitude":48.8767496173,"longitude":2.5999391476,"stop_name":"DISPENSAIRE"},{"latitude":48.8528305972,"longitude":2.5141670803,"stop_name":"NEUILLY-PLAISANCE RER"},{"latitude":48.8542938059,"longitude":2.5212542274,"stop_name":"HELENE BOUCHER"},{"latitude":48.8650165142,"longitude":2.5208018706,"stop_name":"LES CHANOUX - LYCEE CUGNOT"},{"latitude":48.8556887852,"longitude":2.5200061457,"stop_name":"FRANCOIS MAURIAC"},{"latitude":48.8531609882,"longitude":2.4584247298,"stop_name":"ANDRE LAURENT"},{"latitude":48.8557049943,"longitude":2.4820747941,"stop_name":"JEAN MACE"},{"latitude":48.8623287414,"longitude":2.4820660485,"stop_name":"JULES GUESDE"},{"latitude":48.8442170813,"longitude":2.4407972345,"stop_name":"CHATEAU DE VINCENNES"},{"latitude":48.8526418121,"longitude":2.4807996665,"stop_name":"CHARLES GARCIA"},{"latitude":48.8534150426,"longitude":2.4878293592,"stop_name":"VAL DE FONTENAY RER"},{"latitude":48.8668556506,"longitude":2.4842992102,"stop_name":"MEDERIC"},{"latitude":48.8446246824,"longitude":2.4370942328,"stop_name":"AVENUE DU CHATEAU"},{"latitude":48.8518828941,"longitude":2.451217358,"stop_name":"HECTOR MALOT"},{"latitude":48.8560696327,"longitude":2.4616186001,"stop_name":"VEDRINES"},{"latitude":48.8565224898,"longitude":2.4667817032,"stop_name":"ERNEST RENAN"},{"latitude":48.8561601595,"longitude":2.4609922971,"stop_name":"VEDRINES"},{"latitude":48.8381727427,"longitude":2.4943613074,"stop_name":"NOGENT-LE-PERREUX RER"},{"latitude":48.8147969334,"longitude":2.4227064346,"stop_name":"ECOLE VETERINAIRE DE MAISONS-ALFORT"},{"latitude":48.9270177692,"longitude":2.3799162842,"stop_name":"LANGEVIN - WALLON"},{"latitude":48.9282971853,"longitude":2.3694835359,"stop_name":"RU DE MONTFORT"},{"latitude":48.9459486802,"longitude":2.3640370819,"stop_name":"SAINT-DENIS - UNIVERSITE"},{"latitude":48.7145513546,"longitude":2.3721355659,"stop_name":"PORTE DE L'ESSONNE."},{"latitude":48.7036035904,"longitude":2.3714356426,"stop_name":"MARX DORMOY"},{"latitude":48.6954509427,"longitude":2.3715660656,"stop_name":"OBSERVATOIRE CAMILLE FLAMMARION."},{"latitude":48.7036124451,"longitude":2.37189737,"stop_name":"MARX DORMOY."},{"latitude":48.7340383826,"longitude":2.371333361,"stop_name":"COEUR D'ORLY - TRAMWAY"},{"latitude":48.9007204012,"longitude":2.3351962963,"stop_name":"GERARD DE NERVAL"},{"latitude":48.8948064764,"longitude":2.3471501651,"stop_name":"SIMPLON"},{"latitude":48.8813341943,"longitude":2.3517125039,"stop_name":"MAGENTA - MAUBEUGE - GARE DU NORD"},{"latitude":48.8755903947,"longitude":2.3580193185,"stop_name":"GARE DE L'EST"},{"latitude":48.844145249,"longitude":2.3388750838,"stop_name":"AUGUSTE COMTE"},{"latitude":48.8373686296,"longitude":2.3351171176,"stop_name":"HOPITAL SAINT-VINCENT DE PAUL"},{"latitude":48.8016597945,"longitude":2.3241932186,"stop_name":"GRANGE ORY"},{"latitude":48.832254539,"longitude":2.3308834642,"stop_name":"DENFERT-ROCHEREAU - DAGUERRE"},{"latitude":48.8460415877,"longitude":2.3402777279,"stop_name":"LUXEMBOURG"},{"latitude":48.9063508218,"longitude":2.2390412403,"stop_name":"LA GARENNE-COLOMBES - CHARLEBOURG"},{"latitude":48.9047420584,"longitude":2.2389488603,"stop_name":"NORDMANN"},{"latitude":48.8582374813,"longitude":2.3429344427,"stop_name":"PONT NEUF - QUAI DU LOUVRE"},{"latitude":48.8871115644,"longitude":2.2537415598,"stop_name":"PONT DE NEUILLY - RIVE GAUCHE"},{"latitude":48.6976162279,"longitude":2.2997644891,"stop_name":"GENERAL DE GAULLE"},{"latitude":48.7281777604,"longitude":2.2793491757,"stop_name":"JEAN MERMOZ"},{"latitude":48.7790630259,"longitude":2.3161070365,"stop_name":"CONDORCET - MAIRIE-RER"},{"latitude":48.7755590272,"longitude":2.3257364503,"stop_name":"BARBUSSE - LARROUMES"},{"latitude":48.7802962432,"longitude":2.3352690649,"stop_name":"RUE DES JARDINS"},{"latitude":48.855819671,"longitude":2.3460803737,"stop_name":"CITE - PALAIS DE JUSTICE"},{"latitude":48.9517346062,"longitude":2.2021814685,"stop_name":"LES COUDREES"},{"latitude":48.9426067793,"longitude":2.2543751132,"stop_name":"BORDEREL - HELOISE"},{"latitude":48.9234686002,"longitude":2.2755714318,"stop_name":"GRAMME"},{"latitude":48.8791052748,"longitude":2.3221570592,"stop_name":"EUROPE"},{"latitude":48.7702471172,"longitude":2.3485813636,"stop_name":"MAIRIE DE CHEVILLY-LARUE"},{"latitude":48.8162698929,"longitude":2.2800810907,"stop_name":"STADE DE VANVES"},{"latitude":48.8364552707,"longitude":2.2782480784,"stop_name":"BALARD"},{"latitude":48.8416351963,"longitude":2.4993961706,"stop_name":"LE PARC"},{"latitude":48.8383525116,"longitude":2.4943482364,"stop_name":"NOGENT-LE-PERREUX RER"},{"latitude":48.8298147009,"longitude":2.6492398458,"stop_name":"LES PLATANES"},{"latitude":48.8293754514,"longitude":2.648801587,"stop_name":"LES PLATANES"},{"latitude":48.8525561859,"longitude":2.6549741044,"stop_name":"FERME DU COUVENT"},{"latitude":48.8515313627,"longitude":2.6377535685,"stop_name":"LA MOGOTTE"},{"latitude":48.8703247486,"longitude":2.6410640812,"stop_name":"REPUBLIQUE"},{"latitude":48.825551256,"longitude":2.6292725579,"stop_name":"CHAMBRE DE COMMERCE ET D'INDUSTRIE"},{"latitude":48.8390228706,"longitude":2.6508337798,"stop_name":"SOUS-PREFECTURE"},{"latitude":48.8119108595,"longitude":2.3037236428,"stop_name":"CHATILLON - MONTROUGE-METRO"},{"latitude":48.8096682639,"longitude":2.327770052,"stop_name":"VACHE NOIRE - CENTRE COMMERCIAL"},{"latitude":48.8129806988,"longitude":2.3697113241,"stop_name":"CIMETIERE PARISIEN - PLACE DU GENERAL DE GAULLE"},{"latitude":48.8137743892,"longitude":2.2869154903,"stop_name":"ROND-POINT HENRI BARBUSSE"},{"latitude":48.7281777604,"longitude":2.2793491757,"stop_name":"JEAN MERMOZ"},{"latitude":48.7582087611,"longitude":2.3070481155,"stop_name":"FERNAND FENZY"},{"latitude":48.7802962432,"longitude":2.3352690649,"stop_name":"RUE DES JARDINS"},{"latitude":48.8085629778,"longitude":2.3309408008,"stop_name":"LENINE"},{"latitude":48.9411990212,"longitude":2.1649106864,"stop_name":"STALINGRAD"},{"latitude":48.9378375674,"longitude":2.2071559393,"stop_name":"LA BERTHIE"},{"latitude":48.8967713495,"longitude":2.2399999113,"stop_name":"FAUBOURG DE L'ARCHE"},{"latitude":48.887110261,"longitude":2.251901765,"stop_name":"PONT DE NEUILLY - RIVE GAUCHE"},{"latitude":48.8826451507,"longitude":2.2681524417,"stop_name":"RUE DE L'HOTEL DE VILLE"},{"latitude":48.8810473477,"longitude":2.2715612037,"stop_name":"LES SABLONS"},{"latitude":48.8792590444,"longitude":2.2910487315,"stop_name":"EGLISE SAINT-FERDINAND"},{"latitude":48.8751781251,"longitude":2.3246788243,"stop_name":"GARE SAINT-LAZARE"},{"latitude":48.8871115644,"longitude":2.2537415598,"stop_name":"PONT DE NEUILLY - RIVE GAUCHE"},{"latitude":48.9232415117,"longitude":2.2564790205,"stop_name":"RHIN ET DANUBE"},{"latitude":48.8964293911,"longitude":2.2812466725,"stop_name":"PONT DE LEVALLOIS"},{"latitude":48.9207878504,"longitude":2.2706653104,"stop_name":"CUNY"},{"latitude":48.9270181478,"longitude":2.246912453,"stop_name":"AUDRA"},{"latitude":48.9208376863,"longitude":2.263710378,"stop_name":"VICTOR HUGO"},{"latitude":48.8802515113,"longitude":2.4113954707,"stop_name":"BABYLONE"},{"latitude":48.7963222215,"longitude":2.2922924993,"stop_name":"CHARTRES - BLANCHARD"},{"latitude":48.7730272509,"longitude":2.2761716048,"stop_name":"MARC SANGNIER"},{"latitude":48.7974951351,"longitude":2.3063858478,"stop_name":"RUE DES OLIVETTES"},{"latitude":48.799943852,"longitude":2.2910512864,"stop_name":"MAIRIE DE CHATILLON"},{"latitude":48.7954534196,"longitude":2.3011631011,"stop_name":"DAMPIERRE"},{"latitude":48.8749266606,"longitude":2.4839951031,"stop_name":"GARDEBLED"},{"latitude":48.8987624128,"longitude":2.3803837446,"stop_name":"CANAL SAINT-DENIS"},{"latitude":48.8975157964,"longitude":2.3724904415,"stop_name":"ROSA PARKS"},{"latitude":48.8985323439,"longitude":2.3689197786,"stop_name":"PORTE D'AUBERVILLIERS"},{"latitude":48.896225449,"longitude":2.3189352705,"stop_name":"HONORE DE BALZAC"},{"latitude":48.9230970804,"longitude":2.3215714587,"stop_name":"QUATRE CHEMINS"},{"latitude":48.8994260336,"longitude":2.3448337168,"stop_name":"PORTE DE CLIGNANCOURT - CROISSET"},{"latitude":48.9015283442,"longitude":2.3520180407,"stop_name":"GOSSET - POISSONNIERS"},{"latitude":48.7924967978,"longitude":2.3951094664,"stop_name":"EGLISE DE VITRY"},{"latitude":48.9062383825,"longitude":2.3321695181,"stop_name":"GARIBALDI"},{"latitude":48.940433613,"longitude":2.3306382392,"stop_name":"JEAN MOULIN"},{"latitude":48.9404423631,"longitude":2.3272413415,"stop_name":"PLACE PAUL HERBE"},{"latitude":48.9429395526,"longitude":2.3179501029,"stop_name":"ZONE INDUSTRIELLE NORD"},{"latitude":48.8672012857,"longitude":2.3965006148,"stop_name":"VILLIERS DE L'ISLE-ADAM"},{"latitude":48.897457867,"longitude":2.3298940295,"stop_name":"PORTE DE SAINT-OUEN"},{"latitude":48.8996770676,"longitude":2.3514586249,"stop_name":"POISSONNIERS - COCTEAU"},{"latitude":48.8869623423,"longitude":2.1994883645,"stop_name":"PLACE DE LA BOULE - LENINE"},{"latitude":48.8860168803,"longitude":2.2895981573,"stop_name":"L'YSER ET LA SOMME"},{"latitude":48.8892085462,"longitude":2.2730227566,"stop_name":"CHEZY"},{"latitude":48.8388371064,"longitude":2.2624786874,"stop_name":"VERSAILLES - CHARDON LAGACHE"},{"latitude":48.8470492067,"longitude":2.2585858343,"stop_name":"PORTE D'AUTEUIL"},{"latitude":48.8691582372,"longitude":2.2735652835,"stop_name":"LONGCHAMP"},{"latitude":48.8450908493,"longitude":2.585494443,"stop_name":"LYCEE RENE DESCARTES"},{"latitude":48.8416428244,"longitude":2.5839529253,"stop_name":"C.R.O.U.S."},{"latitude":48.8385129946,"longitude":2.5849864305,"stop_name":"NOBEL"},{"latitude":48.9522023273,"longitude":2.3686660589,"stop_name":"LYCEE DE PIERREFITTE-SUR-SEINE"},{"latitude":48.9941297554,"longitude":2.4160379801,"stop_name":"VILLIERS LE BEL - GONESSE - ARNOUVILLE RER"},{"latitude":48.9943102971,"longitude":2.3787154036,"stop_name":"PLACE DE VERDUN"},{"latitude":48.9568253925,"longitude":2.3447465969,"stop_name":"PABLO NERUDA"},{"latitude":48.9653986791,"longitude":2.3444612147,"stop_name":"CITE GRANDCOING"},{"latitude":48.9718508089,"longitude":2.3477928196,"stop_name":"ROBERT FOULON"},{"latitude":48.9725485755,"longitude":2.3077283928,"stop_name":"GARE D'ENGHIEN-LES-BAINS"},{"latitude":48.9915363252,"longitude":2.3695502508,"stop_name":"PETITS CLOS - ROSIERS"},{"latitude":48.9732140552,"longitude":2.3911480267,"stop_name":"EGLISE SAINTE-GENEVIEVE"},{"latitude":48.9912147991,"longitude":2.3893642499,"stop_name":"RUE DU FER A CHEVAL"},{"latitude":48.9982152674,"longitude":2.3892210721,"stop_name":"TISSONVILLIERS"},{"latitude":49.0040009281,"longitude":2.3926689356,"stop_name":"PLACE DE LA TOLINETTE"},{"latitude":49.004609017,"longitude":2.3987615399,"stop_name":"LA POSTE"},{"latitude":48.9941297554,"longitude":2.4160379801,"stop_name":"VILLIERS LE BEL - GONESSE - ARNOUVILLE RER"},{"latitude":49.0087766464,"longitude":2.3832758454,"stop_name":"L'ESPERANCE"},{"latitude":48.9262767927,"longitude":2.3625948743,"stop_name":"DELAUNAY - RIMET"},{"latitude":48.9653512437,"longitude":2.362736846,"stop_name":"ALCIDE D'ORBIGNY"},{"latitude":48.9640053922,"longitude":2.3489922782,"stop_name":"CHEMIN DES ROSES"},{"latitude":48.9597642084,"longitude":2.3411168544,"stop_name":"VILLETANEUSE - UNIVERSITE"},{"latitude":48.9558725329,"longitude":2.3262694749,"stop_name":"RUE DES PRESLES"},{"latitude":48.9551593273,"longitude":2.307287993,"stop_name":"GILBERT BONNEMAISON"},{"latitude":48.9502598846,"longitude":2.2624951307,"stop_name":"HENRI VASSEUR"},{"latitude":48.8922583253,"longitude":2.227932658,"stop_name":"CIMETIERE NOUVEAU"},{"latitude":48.8842246365,"longitude":2.2392739462,"stop_name":"MAIRIE - ANATOLE FRANCE"},{"latitude":48.8841658468,"longitude":2.41772416,"stop_name":"RUE MARCELLE"},{"latitude":48.8839391613,"longitude":2.4206400485,"stop_name":"CENTRE DE SANTE B. LAFAY"},{"latitude":48.7021340377,"longitude":2.3280612447,"stop_name":"PIERRE LOTI"},{"latitude":48.8794042117,"longitude":2.4153049492,"stop_name":"MAIRIE DES LILAS"},{"latitude":48.9055545325,"longitude":2.4690446555,"stop_name":"PONT DE BONDY"},{"latitude":48.9112796787,"longitude":2.4840980697,"stop_name":"MAISON DE RETRAITE"},{"latitude":48.9201905588,"longitude":2.5254975416,"stop_name":"JEAN JAURES"},{"latitude":48.9141900108,"longitude":2.4923556558,"stop_name":"LYCEE CLAUDE-NICOLAS LEDOUX"},{"latitude":48.9069126497,"longitude":2.429675023,"stop_name":"LYCEE ANDRE SABATIER"},{"latitude":48.9054868967,"longitude":2.4651318211,"stop_name":"RUE DES PEUPLIERS"},{"latitude":48.9126979604,"longitude":2.518025668,"stop_name":"GUTENBERG"},{"latitude":48.9149597779,"longitude":2.5013982787,"stop_name":"Z.I. DE LA POUDRETTE"},{"latitude":48.840542783,"longitude":2.3794094631,"stop_name":"Bercy"},{"latitude":48.8554970483,"longitude":2.7736084332,"stop_name":"Val d'europe"},{"latitude":48.8414184427,"longitude":2.3079936494,"stop_name":"Volontaires"},{"latitude":48.9302936229,"longitude":2.2837606332,"stop_name":"Asnières-Gennevilliers Les Courtilles"},{"latitude":48.9054997322,"longitude":2.4614918492,"stop_name":"CITE ADMINISTRATIVE"},{"latitude":48.8857391597,"longitude":2.2918606207,"stop_name":"Porte de Champerret"},{"latitude":48.8266074076,"longitude":2.3642885673,"stop_name":"TOLBIAC - BAUDRICOURT"},{"latitude":48.8357007176,"longitude":2.301965599,"stop_name":"PLACE CHARLES VALLIN"},{"latitude":48.8435573463,"longitude":2.2822296878,"stop_name":"CONVENTION - SAINT-CHARLES"},{"latitude":48.8479636573,"longitude":2.2695059542,"stop_name":"EGLISE D'AUTEUIL"},{"latitude":48.8461450957,"longitude":2.2194100429,"stop_name":"CHEVRILLON"},{"latitude":48.8907462137,"longitude":2.1997100013,"stop_name":"PLAINCHAMP"},{"latitude":48.8979957143,"longitude":2.2048705398,"stop_name":"GOUNOD"},{"latitude":48.896724628,"longitude":2.2182182062,"stop_name":"MARCEL PAUL"},{"latitude":48.8893418209,"longitude":2.3228900278,"stop_name":"LEGENDRE"},{"latitude":48.8257999091,"longitude":2.3572507335,"stop_name":"ITALIE - TOLBIAC"},{"latitude":48.7009068556,"longitude":2.372044941,"stop_name":"MARCHE DES GRAVILLIERS"},{"latitude":48.8390753277,"longitude":2.6338690556,"stop_name":"Lognes"},{"latitude":48.7600420246,"longitude":2.3686722414,"stop_name":"LE COR DE CHASSE - LA BELLE EPINE"},{"latitude":48.797126614,"longitude":2.368191314,"stop_name":"PAUL VAILLANT-COUTURIER - HOPITAL PAUL BROUSSE-METRO"},{"latitude":48.8371369496,"longitude":2.2963960902,"stop_name":"Convention"},{"latitude":48.7979675411,"longitude":2.29374678,"stop_name":"LIBERTE"},{"latitude":48.9563132684,"longitude":2.3319462579,"stop_name":"SABLONS"},{"latitude":48.8739310943,"longitude":2.2951272517,"stop_name":"Charles de Gaulle-Etoile"},{"latitude":48.8968370781,"longitude":2.3225744448,"stop_name":"RUE POUCHET"},{"latitude":48.8614539043,"longitude":2.3203096905,"stop_name":"Assemblée Nationale"},{"latitude":48.9095454888,"longitude":2.3297150701,"stop_name":"LES BATELIERS"},{"latitude":48.6981992103,"longitude":2.1369288994,"stop_name":"Gif-sur-Yvette"},{"latitude":48.8431176786,"longitude":2.363997607,"stop_name":"GARE D'AUSTERLITZ"},{"latitude":49.0497650017,"longitude":2.034345117,"stop_name":"Cergy-Saint-Christophe"},{"latitude":48.9127947266,"longitude":2.4352349145,"stop_name":"ESCADRILLE NORMANDIE - NIEMEN-STALINGRAD-TRAMWAY"},{"latitude":48.8687617926,"longitude":2.3406741288,"stop_name":"Bourse"},{"latitude":48.9088670635,"longitude":2.5310053885,"stop_name":"JEAN-BAPTISTE CLEMENT"},{"latitude":48.8764170529,"longitude":2.3589870465,"stop_name":"Gare de l'Est (Verdun)"},{"latitude":48.9299351983,"longitude":2.4323485125,"stop_name":"EDOUARD VAILLANT"},{"latitude":48.8760505542,"longitude":2.337908692,"stop_name":"Notre-Dame de Lorette"},{"latitude":48.8585341023,"longitude":2.3421172387,"stop_name":"Pont Neuf"},{"latitude":48.9290710134,"longitude":2.3087761177,"stop_name":"MOULIN DE CAGE"},{"latitude":48.8500993066,"longitude":2.4942884834,"stop_name":"RAYMOND POINCARE"},{"latitude":48.9364774927,"longitude":2.3596397453,"stop_name":"Basilique de Saint-Denis"},{"latitude":48.8948064764,"longitude":2.3471501651,"stop_name":"SIMPLON"},{"latitude":48.8941234447,"longitude":2.3472454444,"stop_name":"Simplon"},{"latitude":48.9464741137,"longitude":2.2739749908,"stop_name":"IMPASSE DE LA SEINE"},{"latitude":48.9304519235,"longitude":2.2608869818,"stop_name":"GARE DU STADE."},{"latitude":48.815698661,"longitude":2.350714345,"stop_name":"MAIRIE DE GENTILLY"},{"latitude":48.836540924,"longitude":2.322877415,"stop_name":"LOSSERAND - MAINE"},{"latitude":48.9462611788,"longitude":2.3025587833,"stop_name":"DEQUEVAUVILLIERS"},{"latitude":48.8241891529,"longitude":2.2824135616,"stop_name":"GENERAL DE GAULLE"},{"latitude":48.944308636,"longitude":2.2950699886,"stop_name":"BASSIN N0 5"},{"latitude":48.8944901684,"longitude":2.4205888748,"stop_name":"PIERRE BROSSOLETTE"},{"latitude":48.9229345625,"longitude":2.2544475042,"stop_name":"MAIRIE DE COLOMBES"},{"latitude":48.8379864459,"longitude":2.5349478013,"stop_name":"LA FONTAINE"},{"latitude":48.8910870192,"longitude":2.2070824848,"stop_name":"MAIRIE DE NANTERRE"},{"latitude":48.8440225145,"longitude":2.5260790072,"stop_name":"BRY-SUR-MARNE RER"},{"latitude":48.7620029678,"longitude":2.4072297194,"stop_name":"GENERAL LECLERC"},{"latitude":48.7776009365,"longitude":2.4670472853,"stop_name":"RENE ARCOS"},{"latitude":48.9007110915,"longitude":2.4910475605,"stop_name":"PROFESSEUR VAILLANT"},{"latitude":48.820058541,"longitude":2.4680109229,"stop_name":"CARREFOUR DE LA RESISTANCE"},{"latitude":48.8927427548,"longitude":2.2090137317,"stop_name":"POLITZER"},{"latitude":48.8176341475,"longitude":2.4957145694,"stop_name":"JEAN-BAPTISTE CLEMENT"},{"latitude":48.8557836987,"longitude":2.3463800051,"stop_name":"CITE - PALAIS DE JUSTICE"},{"latitude":48.8128363052,"longitude":2.5011569905,"stop_name":"DIDEROT - LA PLAGE"},{"latitude":48.8489677367,"longitude":2.2820332954,"stop_name":"PONT DE GRENELLE - PLACE FERNAND FOREST"},{"latitude":48.8170746287,"longitude":2.5334391266,"stop_name":"RUE DE BERNAU"},{"latitude":48.866682719,"longitude":2.3641868568,"stop_name":"REPUBLIQUE"},{"latitude":48.7845082788,"longitude":2.4539665792,"stop_name":"PREFECTURE DU VAL-DE-MARNE."},{"latitude":48.8850516712,"longitude":2.4349780583,"stop_name":"MAIRIE DE ROMAINVILLE"},{"latitude":48.7834045622,"longitude":2.4521143738,"stop_name":"PREFECTURE DU VAL-DE-MARNE"},{"latitude":48.8868974632,"longitude":2.468806424,"stop_name":"BREMENT"},{"latitude":48.8767253818,"longitude":2.5488980878,"stop_name":"LA MARE"},{"latitude":48.7800635389,"longitude":2.4671486391,"stop_name":"CASALIS-SAVAR"},{"latitude":48.7809101646,"longitude":2.4736108859,"stop_name":"LA GAITE"},{"latitude":48.79648666,"longitude":2.4125274643,"stop_name":"SALVADOR ALLENDE - EDITH CAVELL"},{"latitude":48.7798046444,"longitude":2.4655295938,"stop_name":"CASALIS - SAVAR"},{"latitude":48.7779016782,"longitude":2.4631993829,"stop_name":"JOHN KENNEDY"},{"latitude":48.8153493308,"longitude":2.4592074559,"stop_name":"ECOLES DE GRAVELLE"},{"latitude":48.7998493809,"longitude":2.4552391388,"stop_name":"HENRI MONDOR - LAFERRIERE"},{"latitude":48.8099366016,"longitude":2.4425795286,"stop_name":"RENE COTY"},{"latitude":48.8154505412,"longitude":2.4374327869,"stop_name":"MOULIN BRULE"},{"latitude":48.8097876016,"longitude":2.4482945156,"stop_name":"RUE DE VINCENNES"},{"latitude":48.7970526846,"longitude":2.4883325358,"stop_name":"INKERMANN"},{"latitude":48.8074954054,"longitude":2.474442718,"stop_name":"GODEFROY CAVAIGNAC"},{"latitude":48.8104727336,"longitude":2.4242098051,"stop_name":"PIERRE CURIE"},{"latitude":48.8154505412,"longitude":2.4374327869,"stop_name":"MOULIN BRULE"},{"latitude":48.8072344773,"longitude":2.4746869576,"stop_name":"LIBERATION - RABELAIS"},{"latitude":48.8047950275,"longitude":2.4853072019,"stop_name":"LE PARC DE SAINT-MAUR RER"},{"latitude":48.8058078535,"longitude":2.4557017041,"stop_name":"DANIELLE CASANOVA"},{"latitude":48.9067543543,"longitude":2.4467981604,"stop_name":"MAURICE THOREZ"},{"latitude":48.9248192639,"longitude":2.4639112132,"stop_name":"ANGELUS - FABIEN"},{"latitude":48.9284639174,"longitude":2.475636044,"stop_name":"QUEBEC"},{"latitude":48.9500248002,"longitude":2.4577099666,"stop_name":"CIMETIERE DU BLANC-MESNIL"},{"latitude":48.95066517,"longitude":2.4641518334,"stop_name":"DESCARTES - RENAULT"},{"latitude":48.9543387111,"longitude":2.457433443,"stop_name":"ROBERT BREMOND"},{"latitude":48.8585101289,"longitude":2.4373388936,"stop_name":"CROIX DE CHAVAUX - ROUGET DE LISLE"},{"latitude":48.8727671486,"longitude":2.4786754865,"stop_name":"GRAND VERGER"},{"latitude":48.8828290395,"longitude":2.4819052859,"stop_name":"BOIS-PERRIER RER-ROSNY 2"},{"latitude":48.883240727,"longitude":2.4904778963,"stop_name":"LES MARNAUDES"},{"latitude":48.8584205955,"longitude":2.480924626,"stop_name":"LA FONTAINE"},{"latitude":48.8760151008,"longitude":2.4677024178,"stop_name":"ETIENNE DOLET"},{"latitude":48.878047057,"longitude":2.4492173859,"stop_name":"TROIS COMMUNES"},{"latitude":48.8894098258,"longitude":2.4460936938,"stop_name":"JURA"},{"latitude":48.901051825,"longitude":2.4420422397,"stop_name":"JEAN JAURES"},{"latitude":48.8643136479,"longitude":2.4016873474,"stop_name":"COUR DES NOUES"},{"latitude":48.8515995757,"longitude":2.4117222226,"stop_name":"SCHUBERT - PAGANINI"},{"latitude":48.8556046451,"longitude":2.4020578835,"stop_name":"PLACE DE LA REUNION"},{"latitude":48.8659949786,"longitude":2.4003952922,"stop_name":"HOPITAL TENON"},{"latitude":48.8590759895,"longitude":2.4738708814,"stop_name":"VICTOR HUGO"},{"latitude":48.8553036905,"longitude":2.4868133584,"stop_name":"PABLO PICASSO"},{"latitude":48.8533882008,"longitude":2.4877339463,"stop_name":"VAL-DE-FONTENAY RER"},{"latitude":48.8567803749,"longitude":2.491707259,"stop_name":"DE LATTRE DE TASSIGNY"},{"latitude":48.8439871914,"longitude":2.4646942667,"stop_name":"FONTENAY-SOUS-BOIS RER"},{"latitude":48.8542063546,"longitude":2.4944643521,"stop_name":"LOUIS AUROUX"},{"latitude":48.8464432808,"longitude":2.4706238925,"stop_name":"ANCIENNE MAIRIE DE FONTENAY-SOUS-BOIS"},{"latitude":48.8529799742,"longitude":2.4505796678,"stop_name":"GEORGES LE TIEC"},{"latitude":48.8567709863,"longitude":2.4775013942,"stop_name":"JEAN MACE - MARTIN LUTHER KING"},{"latitude":48.8512838097,"longitude":2.4739184515,"stop_name":"SAINT-GERMAIN"},{"latitude":48.8641053526,"longitude":2.5171615425,"stop_name":"GEORGES POMPIDOU"},{"latitude":48.8749983442,"longitude":2.3243518695,"stop_name":"GARE SAINT-LAZARE"},{"latitude":48.8590464779,"longitude":2.3384941691,"stop_name":"PONT DES ARTS"},{"latitude":48.8586150219,"longitude":2.3412319053,"stop_name":"PONT NEUF - QUAI DU LOUVRE"},{"latitude":48.8672960055,"longitude":2.3226236763,"stop_name":"CONCORDE"},{"latitude":48.8025533679,"longitude":2.4257204059,"stop_name":"MAISONS-ALFORT - ALFORTVILLE RER"},{"latitude":48.7978872919,"longitude":2.4275626965,"stop_name":"FLORE"},{"latitude":48.7698457672,"longitude":2.4134134855,"stop_name":"JEAN VILAR"},{"latitude":48.7933139385,"longitude":2.4255958375,"stop_name":"ROSES"},{"latitude":48.7783506104,"longitude":2.4234080544,"stop_name":"DIGUE-REVOLUTION"},{"latitude":48.7648763222,"longitude":2.4878174988,"stop_name":"BICENTENAIRE"},{"latitude":48.772492327,"longitude":2.5056122588,"stop_name":"SUCY-BONNEUIL RER"},{"latitude":48.8009326637,"longitude":2.4503572214,"stop_name":"VIET"},{"latitude":48.8094048843,"longitude":2.4708689289,"stop_name":"CROIX SOURIS"},{"latitude":48.7943612227,"longitude":2.4769655328,"stop_name":"GALILEE"},{"latitude":48.7939197877,"longitude":2.4617010165,"stop_name":"EGLISE DE CRETEIL"},{"latitude":48.7917317395,"longitude":2.456825862,"stop_name":"CHATEAU"},{"latitude":48.8589381044,"longitude":2.3848727026,"stop_name":"SAINT MAUR - SERVAN"},{"latitude":48.8578699344,"longitude":2.381412131,"stop_name":"VOLTAIRE - LEON BLUM"},{"latitude":48.8591215028,"longitude":2.3746436766,"stop_name":"POPINCOURT"},{"latitude":48.8625785271,"longitude":2.3360287312,"stop_name":"PALAIS ROYAL - MUSEE DU LOUVRE"},{"latitude":48.8557654734,"longitude":2.3252964255,"stop_name":"RUE DU BAC - RENE CHAR"},{"latitude":48.8562508944,"longitude":2.3263314343,"stop_name":"RUE DU BAC - RENE CHAR"},{"latitude":48.8567811451,"longitude":2.3482597611,"stop_name":"CHATELET"},{"latitude":48.8537676322,"longitude":2.3649836923,"stop_name":"BIRAGUE"},{"latitude":48.8675400598,"longitude":2.4166630116,"stop_name":"LA POSTE"},{"latitude":48.8513081324,"longitude":2.3310173116,"stop_name":"MICHEL DEBRE"},{"latitude":48.8529617938,"longitude":2.344077873,"stop_name":"SAINT-MICHEL - SAINT-GERMAIN"},{"latitude":48.8566437301,"longitude":2.3644812859,"stop_name":"PLACE DES VOSGES"},{"latitude":48.8598612391,"longitude":2.3644284913,"stop_name":"SAINT-CLAUDE"},{"latitude":48.8685257083,"longitude":2.3894861613,"stop_name":"HENRI CHEVREAU"},{"latitude":48.8086182245,"longitude":2.5381698137,"stop_name":"LES MORDACS"},{"latitude":48.8065428695,"longitude":2.5267046795,"stop_name":"MUSEE DE LA RESISTANCE"},{"latitude":48.8122673124,"longitude":2.5155802049,"stop_name":"RUE DU MONUMENT"},{"latitude":48.813090065,"longitude":2.5123033302,"stop_name":"MAIRIE DE CHAMPIGNY"},{"latitude":48.810254892,"longitude":2.520934835,"stop_name":"MARTELET"},{"latitude":48.808496296,"longitude":2.5247659329,"stop_name":"LA CASCADE"},{"latitude":48.7538623142,"longitude":2.3393344328,"stop_name":"PARC MEDICIS"},{"latitude":48.7972341275,"longitude":2.4637768508,"stop_name":"HOPITAL INTERCOMMUNAL"},{"latitude":48.8106208948,"longitude":2.3268989637,"stop_name":"VACHE NOIRE"},{"latitude":48.7981818177,"longitude":2.3275136589,"stop_name":"ARCUEIL-CACHAN RER"},{"latitude":48.7856797523,"longitude":2.3288489503,"stop_name":"LA PLAINE"},{"latitude":48.7874288599,"longitude":2.367464633,"stop_name":"VILLEJUIF - LOUIS ARAGON"},{"latitude":48.7699150986,"longitude":2.3375266254,"stop_name":"CROIX DU SUD - CENTRE DE PNEUMOLOGIE"},{"latitude":48.7791796012,"longitude":2.3598575464,"stop_name":"GUSTAVE CHARPENTIER"},{"latitude":48.8966133449,"longitude":2.4026407586,"stop_name":"PANTIN RER - MAIRIE"},{"latitude":48.8999705461,"longitude":2.4095425364,"stop_name":"DIDEROT"},{"latitude":48.8813341943,"longitude":2.3517125039,"stop_name":"MAGENTA - MAUBEUGE - GARE DU NORD"},{"latitude":48.8830514428,"longitude":2.3440273263,"stop_name":"ANVERS - SACRE COEUR"},{"latitude":48.8763559987,"longitude":2.3317909404,"stop_name":"TRINITE"},{"latitude":48.8474890334,"longitude":2.257740869,"stop_name":"PORTE D'AUTEUIL"},{"latitude":48.8731095778,"longitude":2.3147198619,"stop_name":"MATIGNON - SAINT-HONORE"},{"latitude":48.9673185652,"longitude":2.3917834013,"stop_name":"PIERRE SEMARD"},{"latitude":48.818489124,"longitude":2.2493742483,"stop_name":"PAUL BESNARD"},{"latitude":48.8249539879,"longitude":2.2669905848,"stop_name":"FERBER-GALLIENI"},{"latitude":48.8115157423,"longitude":2.28084839,"stop_name":"COLONEL FABIEN"},{"latitude":48.8939193761,"longitude":2.4140592275,"stop_name":"EGLISE DE PANTIN-METRO"},{"latitude":48.8953045782,"longitude":2.4253471523,"stop_name":"RAYMOND QUENEAU-METRO"},{"latitude":48.8984896932,"longitude":2.4429503439,"stop_name":"LA FOLIE"},{"latitude":48.9469554206,"longitude":2.5242850462,"stop_name":"SEVRAN - BEAUDOTTES RER"},{"latitude":48.905792552,"longitude":2.4808378514,"stop_name":"AUGUSTE POLISSARD"},{"latitude":48.9080378672,"longitude":2.4961546604,"stop_name":"LA FOURCHE"},{"latitude":48.9038736796,"longitude":2.4692857661,"stop_name":"PONT DE BONDY - AVENUE DE ROSNY"},{"latitude":48.9088840612,"longitude":2.5316053431,"stop_name":"JEAN-BAPTISTE CLEMENT"},{"latitude":48.9119045058,"longitude":2.5520959732,"stop_name":"LES MARRONNIERS"},{"latitude":48.900274626,"longitude":2.5668653418,"stop_name":"PAUL BERT"},{"latitude":48.9043856065,"longitude":2.5648522841,"stop_name":"TUILERIE"},{"latitude":48.8912483494,"longitude":2.4904743115,"stop_name":"LA SABLIERE"},{"latitude":48.8945177881,"longitude":2.4919423975,"stop_name":"CORNEILLE"},{"latitude":48.8454570824,"longitude":2.528235749,"stop_name":"MARX DORMOY-CARNOT"},{"latitude":48.8487537543,"longitude":2.5554159698,"stop_name":"MAIRIE DE NOISY-LE-GRAND"},{"latitude":48.8528629461,"longitude":2.5732743745,"stop_name":"LES PREVOYANTS"},{"latitude":48.8529644765,"longitude":2.5147940193,"stop_name":"NEUILLY-PLAISANCE RER."},{"latitude":48.8678183669,"longitude":2.5334676367,"stop_name":"ILE DE FRANCE"},{"latitude":48.8690418087,"longitude":2.5214836666,"stop_name":"RUE LOUIS AMPERE N0 48"},{"latitude":48.8987659837,"longitude":2.3690153396,"stop_name":"PORTE D'AUBERVILLIERS."},{"latitude":48.8334499968,"longitude":2.3333474558,"stop_name":"DENFERT-ROCHEREAU-METRO-RER"},{"latitude":48.8277604908,"longitude":2.3274264328,"stop_name":"ALESIA - GENERAL LECLERC."},{"latitude":48.8031884384,"longitude":2.3380710447,"stop_name":"MAISON DU GRAND CEDRE"},{"latitude":48.8042669043,"longitude":2.3330367043,"stop_name":"LA POSTE"},{"latitude":48.8085629778,"longitude":2.3309408008,"stop_name":"LENINE"},{"latitude":48.7146742755,"longitude":2.2586366447,"stop_name":"COSMONAUTES-STALINGRAD"},{"latitude":48.7039186803,"longitude":2.28080209,"stop_name":"PETIT CHAMPLAN"},{"latitude":48.8224575942,"longitude":2.3254810437,"stop_name":"PORTE D'ORLEANS-METRO"},{"latitude":48.7348174514,"longitude":2.2941936819,"stop_name":"BIARRITZ"},{"latitude":48.7384680807,"longitude":2.2981994581,"stop_name":"SAUSSAYE - MIRABEAU"},{"latitude":48.8246960976,"longitude":2.3357846137,"stop_name":"PARC MONTSOURIS"},{"latitude":48.8447829881,"longitude":2.2900036953,"stop_name":"VIOLET"},{"latitude":48.8425572067,"longitude":2.2770156608,"stop_name":"CAUCHY"},{"latitude":48.8364578646,"longitude":2.3103518096,"stop_name":"FALGUIERE"},{"latitude":48.8629110613,"longitude":2.3361104539,"stop_name":"PALAIS ROYAL - COMEDIE FRANCAISE"},{"latitude":48.8381580004,"longitude":2.3564930423,"stop_name":"SAINT-MARCEL - JEANNE D'ARC"},{"latitude":48.8277959067,"longitude":2.3522148626,"stop_name":"VERLAINE"},{"latitude":48.8338993207,"longitude":2.3319043229,"stop_name":"DENFERT-ROCHEREAU"},{"latitude":48.8808299804,"longitude":2.3579941645,"stop_name":"GARE DU NORD"},{"latitude":49.0105195469,"longitude":2.5596639323,"stop_name":"ROISSYPOLE - GARE - RER"},{"latitude":48.9652051563,"longitude":2.4947332884,"stop_name":"ANDRE CITROEN - CENTRE DE PRODUCTION"},{"latitude":48.9731458179,"longitude":2.5102511223,"stop_name":"NATIONS"},{"latitude":48.9497990728,"longitude":2.4395893669,"stop_name":"LENINE"},{"latitude":48.9829270859,"longitude":2.5197046726,"stop_name":"227, AVENUE DES NATIONS"},{"latitude":48.9181610746,"longitude":2.478867598,"stop_name":"JOUHAUX - BLUM"},{"latitude":48.9181610746,"longitude":2.478867598,"stop_name":"JOUHAUX - BLUM"},{"latitude":48.9893885087,"longitude":2.525407986,"stop_name":"AEROVILLE - RUE DE LA BELLE BORNE"},{"latitude":48.9237933783,"longitude":2.4733187788,"stop_name":"DANIELLE CASANOVA"},{"latitude":48.912405953,"longitude":2.4817288078,"stop_name":"ROUTE D'AULNAY - JEAN MOULIN"},{"latitude":48.8452374922,"longitude":2.3690506508,"stop_name":"PONT D'AUSTERLITZ - QUAI DE LA RAPEE"},{"latitude":48.8713763364,"longitude":2.40417569,"stop_name":"SAINT-FARGEAU"},{"latitude":48.8349460994,"longitude":2.6528649349,"stop_name":"COLLEGE DU SEGRAIS"},{"latitude":48.8840758233,"longitude":2.5106760969,"stop_name":"CHATEAU DE VILLEMOMBLE"},{"latitude":48.8828422349,"longitude":2.4928341933,"stop_name":"LES MARNAUDES"},{"latitude":48.8858344894,"longitude":2.4443554564,"stop_name":"RUE DU PARC"},{"latitude":48.8725942787,"longitude":2.436221639,"stop_name":"VERT BOIS"},{"latitude":48.8808521197,"longitude":2.4573857104,"stop_name":"ECOLE BOISSIERE."},{"latitude":48.9493206363,"longitude":2.3862793551,"stop_name":"LE GLOBE"},{"latitude":48.9709099171,"longitude":2.4140915997,"stop_name":"CARNOT"},{"latitude":48.8466347639,"longitude":2.3402505276,"stop_name":"LUXEMBOURG"},{"latitude":48.9209643904,"longitude":2.3925119118,"stop_name":"PETIT CHEMIN DU PONT BLANC"},{"latitude":48.9299495559,"longitude":2.3961904961,"stop_name":"CHABROL"},{"latitude":48.9418135226,"longitude":2.4100648022,"stop_name":"CENTRE DES ESSENCES"},{"latitude":48.9493595846,"longitude":2.4145644598,"stop_name":"ALBERT CHARDAVOINE"},{"latitude":48.8929786368,"longitude":2.4093964872,"stop_name":"LYCEE PROFESSIONNEL SIMONE WEIL - EGLISE DE PANTIN"},{"latitude":48.8851588388,"longitude":2.4109255236,"stop_name":"LES POMMIERS"},{"latitude":48.781655773,"longitude":2.2264653898,"stop_name":"AVENUE DE LA SYGRIE"},{"latitude":48.8015543743,"longitude":2.2597432185,"stop_name":"POSTE"},{"latitude":48.7855329044,"longitude":2.2405754512,"stop_name":"ILE DE FRANCE"},{"latitude":48.882919011,"longitude":2.4818237747,"stop_name":"BOIS-PERRIER RER-ROSNY 2"},{"latitude":48.9390993739,"longitude":2.47215852,"stop_name":"DOCTEUR CALMETTE"},{"latitude":48.9424825501,"longitude":2.3841719051,"stop_name":"CITE FLOREAL"},{"latitude":48.960662444,"longitude":2.3264049331,"stop_name":"LES 3 COMMUNES"},{"latitude":48.9681641628,"longitude":2.3622195515,"stop_name":"GENERAL GALLIENI - REPUBLIQUE"},{"latitude":48.970599151,"longitude":2.3639679399,"stop_name":"CIMETIERE DE PIERREFITTE"},{"latitude":48.9476439458,"longitude":2.3758400654,"stop_name":"CLOS HANOT"},{"latitude":48.9562146488,"longitude":2.3832700493,"stop_name":"MAIRIE DE STAINS"},{"latitude":48.9686587785,"longitude":2.3890685438,"stop_name":"ROND-POINT DE LA LUTECE"},{"latitude":48.846946577,"longitude":2.6521072695,"stop_name":"JACQUES PREVERT"},{"latitude":48.8252736452,"longitude":2.2477837809,"stop_name":"PONT DE BILLANCOURT"},{"latitude":48.8187999645,"longitude":2.2444604434,"stop_name":"GROUPE SCOLAIRE BROSSOLETTE"},{"latitude":48.8164081501,"longitude":2.232338597,"stop_name":"JEANNE D'ARC"},{"latitude":48.9699448643,"longitude":2.3199465687,"stop_name":"LE STADE"},{"latitude":48.9052425937,"longitude":2.5484556215,"stop_name":"GAGARINE"},{"latitude":48.9120556765,"longitude":2.5207776395,"stop_name":"CHANZY"},{"latitude":48.9041610287,"longitude":2.5051948388,"stop_name":"PIERRE BROSSOLETTE - LA BASOCHE"},{"latitude":48.9087095207,"longitude":2.4510833116,"stop_name":"RENE CAMIER"},{"latitude":48.905938589,"longitude":2.5000745547,"stop_name":"JEAN-BAPTISTE CLEMENT - JAURES"},{"latitude":48.9496663122,"longitude":2.5763627723,"stop_name":"CITE DES DOUANIERS"},{"latitude":48.9075296104,"longitude":2.453780153,"stop_name":"LAMARTINE"},{"latitude":48.9064049751,"longitude":2.4235528099,"stop_name":"HENRI GAUTIER"},{"latitude":48.8999705461,"longitude":2.4095425364,"stop_name":"DIDEROT"},{"latitude":48.9000240619,"longitude":2.4102105556,"stop_name":"DIDEROT"},{"latitude":48.8859012678,"longitude":2.3817494509,"stop_name":"JEAN JAURES - LORRAINE"},{"latitude":48.8978039638,"longitude":2.3704732596,"stop_name":"PORTE D'AUBERVILLIERS - MACDONALD"},{"latitude":48.9261060297,"longitude":2.3626493443,"stop_name":"DELAUNAY - RIMET"},{"latitude":48.9325775846,"longitude":2.3574692862,"stop_name":"PLACE LANNE"},{"latitude":48.8949634645,"longitude":2.3724341854,"stop_name":"CRIMEE - ROSA PARKS"},{"latitude":48.865681029,"longitude":2.3992369983,"stop_name":"GAMBETTA - MAIRIE DU 20E"},{"latitude":48.8949096258,"longitude":2.3721479153,"stop_name":"CRIMEE - ROSA PARKS"},{"latitude":48.8954044207,"longitude":2.3703899397,"stop_name":"EVANGILE - AUBERVILLIERS"},{"latitude":48.8950854889,"longitude":2.337227422,"stop_name":"DAMREMONT - CHAMPIONNET"},{"latitude":48.8993363967,"longitude":2.3359869685,"stop_name":"RENE BINET"},{"latitude":48.8958012046,"longitude":2.2405742092,"stop_name":"CARON"},{"latitude":48.9208748855,"longitude":2.2827884961,"stop_name":"MENIL"},{"latitude":48.9285650771,"longitude":2.2992017987,"stop_name":"DESLANDES - CABOEUFS"},{"latitude":48.9313648195,"longitude":2.3199867424,"stop_name":"VIEUX CHEMIN DE SAINT-DENIS - CENTRE COMMERCIAL"},{"latitude":48.705133727,"longitude":2.3631797387,"stop_name":"NOYER - RENARD"},{"latitude":48.8709724815,"longitude":2.4177718031,"stop_name":"MARIE-ANNE COLOMBIER"},{"latitude":48.8905876849,"longitude":2.4099928368,"stop_name":"8 MAI 1945"},{"latitude":48.8889340178,"longitude":2.4100314018,"stop_name":"PAUL BERT - CIMETIERE"},{"latitude":48.8834148853,"longitude":2.4116180298,"stop_name":"CONVENTION"},{"latitude":48.8873340964,"longitude":2.4103562318,"stop_name":"MONTIGNY - MAISON DE RETRAITE"},{"latitude":48.7885279648,"longitude":2.2878785153,"stop_name":"BOULEVARD DE LA REPUBLIQUE"},{"latitude":48.7862177426,"longitude":2.2871054177,"stop_name":"AUGUSTIN CLAUDE"},{"latitude":48.7623467817,"longitude":2.2712354343,"stop_name":"FACULTE DE PHARMACIE"},{"latitude":48.7424148592,"longitude":2.2625766178,"stop_name":"GRANDS CHENES"},{"latitude":48.7405330308,"longitude":2.257523954,"stop_name":"MOULIN DE GRAIS"},{"latitude":48.7945422013,"longitude":2.2719835271,"stop_name":"DIVISION LECLERC"},{"latitude":48.7629443651,"longitude":2.2796367281,"stop_name":"LA BRIAUDE"},{"latitude":48.9282748042,"longitude":2.382972445,"stop_name":"RUE DE L'UNION"},{"latitude":48.9322152428,"longitude":2.3941470759,"stop_name":"LE CROULT"},{"latitude":48.93217649,"longitude":2.3997530657,"stop_name":"JEAN MERMOZ - HENRI BARBUSSE"},{"latitude":48.9248228122,"longitude":2.4416948294,"stop_name":"JEAN-PIERRE TIMBAUD"},{"latitude":48.8771785085,"longitude":2.4798593158,"stop_name":"GABRIEL PERI - DE GAULLE"},{"latitude":48.7397231633,"longitude":2.2892566374,"stop_name":"LES BACONNETS-RER"},{"latitude":48.7301486586,"longitude":2.2846187287,"stop_name":"MOSCOU - ROME"},{"latitude":48.7296300295,"longitude":2.2572417613,"stop_name":"CLOS DE VILLAINE"},{"latitude":48.7290818761,"longitude":2.2450281572,"stop_name":"CENTRE COMMERCIAL DE MASSY"},{"latitude":48.7331033081,"longitude":2.2019070555,"stop_name":"GRANDS CHAMPS - FAVREUSE"},{"latitude":48.7947224038,"longitude":2.2727995332,"stop_name":"DIVISION LECLERC"},{"latitude":48.780231052,"longitude":2.1965890249,"stop_name":"LOUVOIS"},{"latitude":48.7478818996,"longitude":2.3092967324,"stop_name":"DESCARTES"},{"latitude":48.8666138306,"longitude":2.3344075309,"stop_name":"Pyramides"},{"latitude":48.8920344188,"longitude":2.2391501465,"stop_name":"LA DEFENSE-METRO-RER-TRAMWAY"},{"latitude":48.8746628017,"longitude":2.1677614717,"stop_name":"LE CHATEAU"},{"latitude":48.6939854454,"longitude":2.3727870772,"stop_name":"THIERS"},{"latitude":48.6809121809,"longitude":2.3428336367,"stop_name":"BRIAND - SALENGRO"},{"latitude":48.8966913572,"longitude":2.2209307824,"stop_name":"NANTERRE - PREFECTURE RER"},{"latitude":48.8676759272,"longitude":2.2255459643,"stop_name":"RUE DES BOURETS - PONT DE SURESNES"},{"latitude":48.7017384881,"longitude":2.3273823368,"stop_name":"PIERRE LOTI"},{"latitude":48.699779393,"longitude":2.383464165,"stop_name":"DOCTEUR GUERIN"},{"latitude":48.6919342507,"longitude":2.3783522459,"stop_name":"MARCHE DE JUVISY"},{"latitude":48.8389137533,"longitude":2.350679522,"stop_name":"MONGE - CLAUDE BERNARD"},{"latitude":48.8363880998,"longitude":2.3519178148,"stop_name":"LES GOBELINS"},{"latitude":48.8225192344,"longitude":2.3582703062,"stop_name":"MAISON BLANCHE"},{"latitude":48.7928218646,"longitude":2.3664339142,"stop_name":"GUYNEMER - PLACE DES FUSILLES"},{"latitude":48.759448634,"longitude":2.3693244252,"stop_name":"LE COR DE CHASSE"},{"latitude":48.7615097335,"longitude":2.3561791619,"stop_name":"TROIS MARCHES"},{"latitude":48.6953700534,"longitude":2.3715388565,"stop_name":"OBSERVATOIRE CAMILLE FLAMMARION"},{"latitude":48.7022665916,"longitude":2.3622413108,"stop_name":"PLEIN MIDI"},{"latitude":48.6956505561,"longitude":2.3643562962,"stop_name":"PLACE HENRI BARBUSSE"},{"latitude":48.7084598542,"longitude":2.3893661666,"stop_name":"PLACE DE L'EGLISE"},{"latitude":48.7195390758,"longitude":2.4126877703,"stop_name":"GUNSBOURG"},{"latitude":48.707835759,"longitude":2.3975821378,"stop_name":"EDOUARD VAILLANT"},{"latitude":48.7154177385,"longitude":2.4054963153,"stop_name":"LES FONTAINES"},{"latitude":48.7054650338,"longitude":2.393002749,"stop_name":"COTTAGE"},{"latitude":48.6926531059,"longitude":2.3790180959,"stop_name":"MARCHE DE JUVISY"},{"latitude":48.8763290374,"longitude":2.3318045685,"stop_name":"Trinité-d'Estienne d'Orves"},{"latitude":48.6999140672,"longitude":2.383858078,"stop_name":"DOCTEUR GUERIN"},{"latitude":48.9631675501,"longitude":2.5123878279,"stop_name":"Villepinte"},{"latitude":48.8606264983,"longitude":2.4199896108,"stop_name":"REPUBLIQUE - ROBESPIERRE"},{"latitude":48.8473238712,"longitude":2.4335315969,"stop_name":"Vincennes"},{"latitude":48.8736319573,"longitude":2.4606797564,"stop_name":"RUE DES ROCHES"},{"latitude":48.8585642706,"longitude":2.4370802062,"stop_name":"CROIX DE CHAVAUX - ROUGET DE LISLE"},{"latitude":48.8862135615,"longitude":2.3566471583,"stop_name":"SAINT-BRUNO"},{"latitude":48.8779607383,"longitude":2.2395446735,"stop_name":"VOLTAIRE"},{"latitude":48.890473747,"longitude":2.3550269011,"stop_name":"PONT MARCADET"},{"latitude":48.8799256896,"longitude":2.2356438653,"stop_name":"BAS ROGERS"},{"latitude":48.9181666784,"longitude":2.465994938,"stop_name":"MARCEL CACHIN"},{"latitude":48.9448061922,"longitude":2.4351044901,"stop_name":"DIDEROT"},{"latitude":48.8697773289,"longitude":2.3328270241,"stop_name":"OPERA - 4 SEPTEMBRE"},{"latitude":48.8317033646,"longitude":2.2526463543,"stop_name":"RUE DU POINT DU JOUR"},{"latitude":48.8818922428,"longitude":2.3402661929,"stop_name":"ROCHECHOUART - MARTYRS"},{"latitude":48.7931540658,"longitude":2.3066741007,"stop_name":"PORTE-D'EN-BAS"},{"latitude":48.8834644759,"longitude":2.3489331576,"stop_name":"BARBES - ROCHECHOUART"},{"latitude":48.7697486738,"longitude":2.2505580757,"stop_name":"CYRANO DE BERGERAC"},{"latitude":48.8765444586,"longitude":2.3469968002,"stop_name":"SQUARE MONTHOLON"},{"latitude":48.7368335645,"longitude":2.2632504822,"stop_name":"EMILE ZOLA"},{"latitude":48.8651863721,"longitude":2.2950117545,"stop_name":"IENA"},{"latitude":48.7947399977,"longitude":2.2913552016,"stop_name":"CIMETIERE DE FONTENAY-AUX-ROSES"},{"latitude":48.854670332,"longitude":2.3816137007,"stop_name":"GODEFROY - CAVAIGNAC"},{"latitude":48.8087791457,"longitude":2.2917646239,"stop_name":"JEAN MERMOZ"},{"latitude":48.8341873217,"longitude":2.416965937,"stop_name":"ALPHAND"},{"latitude":48.7932001,"longitude":2.2842147385,"stop_name":"ANDRE SALEL"},{"latitude":48.8534293022,"longitude":2.3343673965,"stop_name":"SAINT-GERMAIN-DES-PRES"},{"latitude":48.7800220943,"longitude":2.2805561876,"stop_name":"ROBINSON RER"},{"latitude":48.8534293022,"longitude":2.3343673965,"stop_name":"SAINT-GERMAIN-DES-PRES"},{"latitude":48.7766228565,"longitude":2.2483027456,"stop_name":"LANGEVIN"},{"latitude":48.8514043908,"longitude":2.3629259995,"stop_name":"SULLY - MORLAND"},{"latitude":48.7803775509,"longitude":2.2577620005,"stop_name":"LA POSTE"},{"latitude":48.7566894618,"longitude":2.2813836841,"stop_name":"MARCEL MAILLARD"},{"latitude":48.7836389833,"longitude":2.2704195155,"stop_name":"TOUR DE L'ETANG"},{"latitude":48.7810744418,"longitude":2.2821598743,"stop_name":"ROBINSON RER"},{"latitude":48.7343040449,"longitude":2.2573704492,"stop_name":"GEORGES MANDEL"},{"latitude":48.8148606019,"longitude":2.3107032311,"stop_name":"JEAN JAURES"},{"latitude":48.8722219315,"longitude":2.3400476437,"stop_name":"RICHELIEU - DROUOT - MAIRIE DU 9E"},{"latitude":48.9069126497,"longitude":2.429675023,"stop_name":"LYCEE ANDRE SABATIER"},{"latitude":48.8497893133,"longitude":2.3421028003,"stop_name":"LES ECOLES"},{"latitude":48.9595520491,"longitude":2.3009258578,"stop_name":"JOFFRE - DE LATTRE DE TASSIGNY"},{"latitude":48.8568233601,"longitude":2.3095104166,"stop_name":"INVALIDES - LA TOUR MAUBOURG"},{"latitude":48.9659780258,"longitude":2.2794652937,"stop_name":"LIBERTE"},{"latitude":48.8284254937,"longitude":2.3264734175,"stop_name":"ALESIA - MAINE"},{"latitude":48.9698798498,"longitude":2.3089174583,"stop_name":"MAIRIE D'ENGHIEN-LES-BAINS"},{"latitude":48.8382626362,"longitude":2.4943479643,"stop_name":"NOGENT-LE-PERREUX RER"},{"latitude":48.77934391,"longitude":2.2919943982,"stop_name":"FONTENAY - HOUDAN"},{"latitude":48.8181961795,"longitude":2.268592106,"stop_name":"BELVEDERE"},{"latitude":48.8401211181,"longitude":2.1855884768,"stop_name":"JOFFRE"},{"latitude":48.8913911078,"longitude":2.3497663277,"stop_name":"MARCADET - POISSONNIERS"},{"latitude":48.7905486885,"longitude":2.2842582547,"stop_name":"CARNOT - JEAN JAURES"},{"latitude":48.8204253982,"longitude":2.3565273005,"stop_name":"DAMESME"},{"latitude":48.785719632,"longitude":2.2788361771,"stop_name":"PASTEUR"},{"latitude":48.8116635895,"longitude":2.3461953396,"stop_name":"BOUT DU RANG"},{"latitude":48.7699431721,"longitude":2.2739180645,"stop_name":"JEAN JAURES"},{"latitude":48.8045545828,"longitude":2.3360437057,"stop_name":"LOUIS FREBAULT"},{"latitude":48.8191835534,"longitude":2.3100749468,"stop_name":"PIERRE BROSSOLETTE - GABRIEL PERI"},{"latitude":48.7650073601,"longitude":2.329518502,"stop_name":"CHARCOT"},{"latitude":48.860823206,"longitude":2.4438815441,"stop_name":"CENTRE ADMINISTRATIF"},{"latitude":48.8688492012,"longitude":2.4621124451,"stop_name":"NOUVELLE FRANCE"},{"latitude":48.9212977655,"longitude":2.2838790206,"stop_name":"MENIL"},{"latitude":48.8532302683,"longitude":2.5738616749,"stop_name":"LES PREVOYANTS"},{"latitude":48.7386357082,"longitude":2.244073554,"stop_name":"AMBLAINVILLIERS"},{"latitude":48.9362818161,"longitude":2.2569497571,"stop_name":"PETIT GENNEVILLIERS"},{"latitude":48.7542762412,"longitude":2.292206534,"stop_name":"FRANCOIS MOLE"},{"latitude":48.8874576117,"longitude":2.2003319984,"stop_name":"PLACE DE LA BOULE"},{"latitude":48.9146049665,"longitude":2.3476720907,"stop_name":"LANDY - PLEYEL"},{"latitude":48.791538435,"longitude":2.2867329979,"stop_name":"MAIRIE DE FONTENAY-AUX-ROSES"},{"latitude":48.8779671286,"longitude":2.4268301463,"stop_name":"FLOREAL"},{"latitude":48.8438117935,"longitude":2.3223851975,"stop_name":"PLACE DU 18 JUIN 1940 - RUE DE L'ARRIVEE"},{"latitude":48.8217659423,"longitude":2.3438423843,"stop_name":"AMIRAL MOUCHEZ"},{"latitude":48.8807494209,"longitude":2.4195856807,"stop_name":"PAUL DE KOCK"},{"latitude":48.8219417959,"longitude":2.4232218061,"stop_name":"HOPITAL NATIONAL DE SAINT-MAURICE"},{"latitude":48.8827037477,"longitude":2.5147596045,"stop_name":"RUE DE NEUILLY"},{"latitude":48.8180269247,"longitude":2.4410444069,"stop_name":"MARECHAL LECLERC"},{"latitude":48.8807118407,"longitude":2.3644803009,"stop_name":"LOUIS BLANC"},{"latitude":48.8148006742,"longitude":2.4680521146,"stop_name":"REPUBLIQUE"},{"latitude":48.8372011635,"longitude":2.3741241242,"stop_name":"QUAI DE LA GARE"},{"latitude":48.8780861555,"longitude":2.4552673079,"stop_name":"HOPITAL ANDRE GREGOIRE"},{"latitude":48.9261466522,"longitude":2.4384924747,"stop_name":"CENTRE CULTUREL"},{"latitude":48.8748399468,"longitude":2.4477662199,"stop_name":"MIRABEAU"},{"latitude":48.8695388891,"longitude":2.3946777365,"stop_name":"PYRENEES - MENILMONTANT"},{"latitude":48.9600265773,"longitude":2.3995956334,"stop_name":"LIMITE DES DEPARTEMENTS"},{"latitude":48.7727299751,"longitude":2.4579923599,"stop_name":"BILLOTTE - FALKIRK"},{"latitude":48.9839048237,"longitude":2.4377862867,"stop_name":"CHEMIN DU MOULIN D'ETIF"},{"latitude":48.812654254,"longitude":2.4275747785,"stop_name":"ERNEST RENAN"},{"latitude":48.6999901435,"longitude":2.0991719606,"stop_name":"11 NOVEMBRE - COURCELLE-SUR-YVETTE RER"},{"latitude":48.7904627133,"longitude":2.3806066606,"stop_name":"CAMELINAT"},{"latitude":48.7955988082,"longitude":2.4093836287,"stop_name":"CHARLES HELLER"},{"latitude":48.9439237909,"longitude":2.412687241,"stop_name":"DUGNY - LA COURNEUVE"},{"latitude":48.8319057188,"longitude":2.3794024462,"stop_name":"PONT DE TOLBIAC"},{"latitude":48.8189930543,"longitude":2.4109813171,"stop_name":"VICTOR HUGO"},{"latitude":48.7982518956,"longitude":2.2679246337,"stop_name":"PLESSIS - PIQUET"},{"latitude":48.8977185118,"longitude":2.3443154925,"stop_name":"PORTE DE CLIGNANCOURT"},{"latitude":48.8955604993,"longitude":2.4772383472,"stop_name":"GARE DE BONDY RER"},{"latitude":48.868689895,"longitude":2.3406332542,"stop_name":"BOURSE"},{"latitude":48.8222995112,"longitude":2.2488369632,"stop_name":"PIERRE POLI"},{"latitude":48.8253890943,"longitude":2.3810305828,"stop_name":"AVENUE DE FRANCE"},{"latitude":48.9233253856,"longitude":2.2173115375,"stop_name":"PONT DE BEZONS"},{"latitude":48.9176976938,"longitude":2.2246335604,"stop_name":"PARC PIERRE LAGRAVERE"},{"latitude":48.9139825627,"longitude":2.3628888345,"stop_name":"MARAICHERS"},{"latitude":48.896807298,"longitude":2.2399998438,"stop_name":"FAUBOURG DE L'ARCHE"},{"latitude":48.8735157526,"longitude":2.3276766272,"stop_name":"HAVRE - HAUSSMANN"},{"latitude":48.8855731935,"longitude":2.3069466466,"stop_name":"JOUFFROY - MALESHERBES"},{"latitude":48.8407628547,"longitude":2.3908878839,"stop_name":"DUBRUNFAUT"},{"latitude":48.9275740557,"longitude":2.2726069292,"stop_name":"QUATRE ROUTES"},{"latitude":48.9320640072,"longitude":2.2664497055,"stop_name":"SOLFERINO"},{"latitude":48.8478750076,"longitude":2.4028108245,"stop_name":"MARSOULAN"},{"latitude":48.8495085082,"longitude":2.3890857007,"stop_name":"CLAUDE TILLIER"},{"latitude":48.8924142984,"longitude":2.2541555303,"stop_name":"VICTOR HUGO"},{"latitude":48.8872216637,"longitude":2.3340384395,"stop_name":"TOURLAQUE"},{"latitude":48.9361266527,"longitude":2.2674399451,"stop_name":"DIRECTION DU PORT"},{"latitude":48.8808299804,"longitude":2.3579941645,"stop_name":"GARE DU NORD"},{"latitude":48.9111869957,"longitude":2.3089495618,"stop_name":"CLICHY - BERGES DE SEINE"},{"latitude":48.8328740001,"longitude":2.2888437462,"stop_name":"PORTE DE VERSAILLES."},{"latitude":48.8696937901,"longitude":2.3117241674,"stop_name":"ROND-POINT DES CHAMPS-ELYSEES - MATIGNON"},{"latitude":48.8782965212,"longitude":2.3229748428,"stop_name":"EUROPE"},{"latitude":48.8637738287,"longitude":2.3347209924,"stop_name":"PALAIS ROYAL - COMEDIE FRANCAISE"},{"latitude":48.8354737037,"longitude":2.4748025994,"stop_name":"PLACE DU GENERAL LECLERC"},{"latitude":48.9150547717,"longitude":2.337377402,"stop_name":"LANDY - JAURES"},{"latitude":48.9039316413,"longitude":2.2989336059,"stop_name":"FOURNIER"},{"latitude":48.8387869565,"longitude":2.3169676984,"stop_name":"MONTPARNASSE 2 - GARE TGV"},{"latitude":48.9144468755,"longitude":2.3001666409,"stop_name":"MARCHE DE GENNEVILLIERS"},{"latitude":48.8438611626,"longitude":2.3733935528,"stop_name":"GARE DE LYON"},{"latitude":48.8791639524,"longitude":2.2791260385,"stop_name":"MONTROSIER"},{"latitude":48.8151144398,"longitude":2.4185153167,"stop_name":"MAISONS-ALFORT - ECOLE VETERINAIRE"},{"latitude":48.8920702664,"longitude":2.2390274137,"stop_name":"LA DEFENSE-METRO-RER-TRAMWAY."},{"latitude":48.8122472168,"longitude":2.3857960712,"stop_name":"HOTEL DE VILLE D'IVRY"},{"latitude":48.8853979845,"longitude":2.2927603456,"stop_name":"PORTE DE CHAMPERRET"},{"latitude":48.8156145984,"longitude":2.3927127697,"stop_name":"MOLIERE"},{"latitude":48.8804043517,"longitude":2.2384227057,"stop_name":"WALLACE - JEAN JAURES"},{"latitude":48.9299741094,"longitude":2.2459525381,"stop_name":"LES SAULES"},{"latitude":48.8871474272,"longitude":2.2536188488,"stop_name":"PONT DE NEUILLY - RIVE GAUCHE"},{"latitude":48.8607170565,"longitude":2.3211680657,"stop_name":"LILLE - UNIVERSITE"},{"latitude":48.9461709197,"longitude":2.2014046508,"stop_name":"CITE DES INDES"},{"latitude":48.9461709197,"longitude":2.2014046508,"stop_name":"CITE DES INDES"},{"latitude":48.8744756122,"longitude":2.3145285211,"stop_name":"HAUSSMANN - MIROMESNIL"},{"latitude":48.8846376218,"longitude":2.2387553214,"stop_name":"MAIRIE DE PUTEAUX"},{"latitude":48.8837167696,"longitude":2.233851266,"stop_name":"GARE DE PUTEAUX"},{"latitude":48.7623277711,"longitude":2.41935725,"stop_name":"THEOPHILE DUCLOUX"},{"latitude":48.8752507088,"longitude":2.1909220964,"stop_name":"RUE DES FOLIES"},{"latitude":48.8384731626,"longitude":2.3221552665,"stop_name":"GAITE"},{"latitude":48.8610890673,"longitude":2.172164654,"stop_name":"CENTRE MADELEINE DANIELOU"},{"latitude":48.8409254278,"longitude":2.3138760335,"stop_name":"PASTEUR - FALGUIERE"},{"latitude":48.8846376218,"longitude":2.2387553214,"stop_name":"MAIRIE DE PUTEAUX"},{"latitude":48.8487914722,"longitude":2.3284029485,"stop_name":"RENNES - D'ASSAS"},{"latitude":48.868555621,"longitude":2.224413339,"stop_name":"SURESNES DE GAULLE"},{"latitude":48.8983478199,"longitude":2.3370911096,"stop_name":"ANGELIQUE COMPOINT"},{"latitude":48.8830907078,"longitude":2.2374228077,"stop_name":"MAIRIE - EGLISE"},{"latitude":48.8875842009,"longitude":2.2372778706,"stop_name":"BOIELDIEU"},{"latitude":48.8290227663,"longitude":2.3014392383,"stop_name":"BRANCION"},{"latitude":48.868851517,"longitude":2.2236906584,"stop_name":"SURESNES DE GAULLE"},{"latitude":48.9302423873,"longitude":2.3843790474,"stop_name":"LA COURNEUVE - SIX ROUTES"},{"latitude":48.8789853852,"longitude":2.1876685652,"stop_name":"LIENARD"},{"latitude":48.8489026808,"longitude":2.5575137885,"stop_name":"CARREFOUR DE MALNOUE"},{"latitude":48.8315123033,"longitude":2.5667108126,"stop_name":"GABRIEL PERI"},{"latitude":48.8676141351,"longitude":2.2007385954,"stop_name":"AVENUE DU MONT VALERIEN"},{"latitude":48.8482507819,"longitude":2.5399710907,"stop_name":"ROUTE DE NEUILLY"},{"latitude":48.8969630453,"longitude":2.2559611216,"stop_name":"HEROLD - MAIRIE DE COURBEVOIE"},{"latitude":48.8864543391,"longitude":2.5127963916,"stop_name":"GUSTAVE RODET"},{"latitude":48.7973136025,"longitude":2.3001686761,"stop_name":"RUE FROIDE"},{"latitude":48.8498210292,"longitude":2.5361640851,"stop_name":"RENE NAVIER"},{"latitude":48.696837665,"longitude":2.3130038709,"stop_name":"ELISEE RECLUS"},{"latitude":48.7056915482,"longitude":2.3138960629,"stop_name":"COLLEGE DE CHILLY-MAZARIN"},{"latitude":48.6974250646,"longitude":2.2927988913,"stop_name":"PLACE CHARLES STEBER"},{"latitude":48.9039251359,"longitude":2.4714943719,"stop_name":"AVENUE DE ROSNY"},{"latitude":48.7546033772,"longitude":2.3948633795,"stop_name":"FERME DE GRIGNON"},{"latitude":48.7624630984,"longitude":2.3856951797,"stop_name":"LA GALAISE"},{"latitude":48.8661252991,"longitude":2.3650720364,"stop_name":"REPUBLIQUE - TEMPLE"},{"latitude":48.8808299804,"longitude":2.3579941645,"stop_name":"GARE DU NORD"},{"latitude":48.9143262109,"longitude":2.4038357499,"stop_name":"FORT D'AUBERVILLIERS - METRO"},{"latitude":48.954890642,"longitude":2.4440480209,"stop_name":"PONT YBLON - SANTOS DUMONT"},{"latitude":48.8911565292,"longitude":2.3179148734,"stop_name":"BROCHANT - CARDINET"},{"latitude":48.8889184117,"longitude":2.3161031056,"stop_name":"PARC MARTIN LUTHER KING"},{"latitude":48.9064163233,"longitude":2.2862801607,"stop_name":"RUE DE LA STATION"},{"latitude":48.853761468,"longitude":2.3470742364,"stop_name":"CITE - PARVIS NOTRE-DAME"},{"latitude":48.8122277078,"longitude":2.3613824764,"stop_name":"CONVENTION - FONTAINEBLEAU"},{"latitude":48.8072048765,"longitude":2.3535288209,"stop_name":"BARNUFLES-LA PISCINE"},{"latitude":48.8642771306,"longitude":2.3351704977,"stop_name":"PALAIS ROYAL - COMEDIE FRANCAISE"},{"latitude":48.784711503,"longitude":2.296926975,"stop_name":"LEON BLUM"},{"latitude":48.8418655149,"longitude":2.2997691923,"stop_name":"MAIRIE DU 15E"},{"latitude":48.791538435,"longitude":2.2867329979,"stop_name":"MAIRIE DE FONTENAY-AUX-ROSES"},{"latitude":48.8944988302,"longitude":2.3128705037,"stop_name":"PORTE DE CLICHY"},{"latitude":48.903629786,"longitude":2.3130706938,"stop_name":"REPUBLIQUE - FRANCOIS MITTERRAND"},{"latitude":48.9719088316,"longitude":2.2787488464,"stop_name":"CITE JEAN MOULIN"},{"latitude":48.8394642123,"longitude":2.2745412115,"stop_name":"RUE LEBLANC"},{"latitude":48.9438487675,"longitude":2.3355356586,"stop_name":"CIMETIERE DE L'ILE-SAINT-DENIS"},{"latitude":48.7882736338,"longitude":2.2294301535,"stop_name":"EGLISE DE MEUDON-LA-FORET"},{"latitude":48.8066955272,"longitude":2.2359776919,"stop_name":"EGLISE DE MEUDON"},{"latitude":48.8364213644,"longitude":2.2519579204,"stop_name":"HENRI MARTIN"},{"latitude":48.8512007012,"longitude":2.2916457102,"stop_name":"DUPLEIX"},{"latitude":48.8479195952,"longitude":2.2899191314,"stop_name":"THEATRE"},{"latitude":48.8160996099,"longitude":2.3054085119,"stop_name":"AUGUSTIN DUMONT"},{"latitude":48.8968783803,"longitude":2.280469238,"stop_name":"PONT DE LEVALLOIS - BECON-METRO"},{"latitude":48.9155905437,"longitude":2.282794052,"stop_name":"RUE DES CHAMPS"},{"latitude":48.9791495124,"longitude":2.3804780611,"stop_name":"PAUL VALERY"},{"latitude":48.9677958642,"longitude":2.4070984975,"stop_name":"LINO VENTURA"},{"latitude":48.9659968479,"longitude":2.4099350401,"stop_name":"PLACE DU 19 MARS 1962"},{"latitude":48.9369213763,"longitude":2.428009788,"stop_name":"PIERRE CURIE"},{"latitude":48.97157505,"longitude":2.398312762,"stop_name":"HOTEL DE VILLE DE GARGES-LES-GONESSE"},{"latitude":48.9364636779,"longitude":2.4271768777,"stop_name":"PIERRE CURIE"},{"latitude":48.9434920651,"longitude":2.4657031944,"stop_name":"LIBERATION"},{"latitude":48.7788671131,"longitude":2.3409266022,"stop_name":"HENRI THIRARD - LEON JOUHAUX"},{"latitude":48.7558625834,"longitude":2.3685065901,"stop_name":"LA BELLE EPINE"},{"latitude":48.7983246908,"longitude":2.3550497766,"stop_name":"PLACE DU 8 MAI 1945"},{"latitude":48.8067206486,"longitude":2.3369553253,"stop_name":"HOTEL DE VILLE D'ARCUEIL"},{"latitude":48.7301486586,"longitude":2.2846187287,"stop_name":"MOSCOU - ROME"},{"latitude":48.7340409351,"longitude":2.3136930963,"stop_name":"ANTONYPOLE"},{"latitude":48.8775505077,"longitude":2.4843567963,"stop_name":"VAN DERHEYDEN"},{"latitude":48.7049477857,"longitude":2.3354756426,"stop_name":"PLACE LUCIEN BOILLEAU"},{"latitude":48.7145154644,"longitude":2.3719182155,"stop_name":"PORTE DE L'ESSONNE"},{"latitude":48.7130249304,"longitude":2.3661310756,"stop_name":"CENTRE SPORTIF"},{"latitude":48.6867817158,"longitude":2.3306161786,"stop_name":"MEUNIERS"},{"latitude":48.7539317951,"longitude":2.3131539452,"stop_name":"PASTEUR-JAURES"},{"latitude":48.7538617267,"longitude":2.3252519036,"stop_name":"ALBERT ROPER"},{"latitude":48.751264741,"longitude":2.3386682964,"stop_name":"VOIE DES LAITIERES"},{"latitude":48.7596473259,"longitude":2.3655724136,"stop_name":"PORTE DE THIAIS"},{"latitude":48.746271816,"longitude":2.3698871247,"stop_name":"THIAIS PONT DE RUNGIS"},{"latitude":48.7557224979,"longitude":2.327698333,"stop_name":"CLOS LA GARENNE"},{"latitude":48.7771121611,"longitude":2.3608901904,"stop_name":"RUE PAUL HOCHART"},{"latitude":48.7639632269,"longitude":2.3577435747,"stop_name":"MARCHE INTERNATIONAL DE RUNGIS"},{"latitude":48.7584367048,"longitude":2.3491633468,"stop_name":"MARCHE DE RUNGIS-PONDORLY"},{"latitude":48.7725691642,"longitude":2.3762539433,"stop_name":"CITE DU MOULIN VERT"},{"latitude":48.7717196633,"longitude":2.3592423973,"stop_name":"CITE DES SORBIERS"},{"latitude":48.701378358,"longitude":2.3526537837,"stop_name":"BOULEVARD DES BELGES"},{"latitude":48.6828426757,"longitude":2.3601007678,"stop_name":"MONTAGNE PAVEE"},{"latitude":48.6932893287,"longitude":2.3460392194,"stop_name":"CITE DES TILLEULS"},{"latitude":48.701378358,"longitude":2.3526537837,"stop_name":"BOULEVARD DES BELGES"},{"latitude":48.6880566059,"longitude":2.357224948,"stop_name":"ARISTIDE BRIAND - CHAMPAGNE"},{"latitude":48.7639109363,"longitude":2.3317347812,"stop_name":"STADE DE LA PAIX"},{"latitude":48.7874829211,"longitude":2.3669341874,"stop_name":"VILLEJUIF - LOUIS ARAGON"},{"latitude":48.8048708511,"longitude":2.2596974477,"stop_name":"MARQUIS"},{"latitude":48.7980113748,"longitude":2.3331052359,"stop_name":"COUSIN DE MERICOURT"},{"latitude":48.8020290081,"longitude":2.3382206901,"stop_name":"AUGUSTE DELAUNE"},{"latitude":48.7980539636,"longitude":2.3132423067,"stop_name":"LES IRIS"},{"latitude":48.8100922498,"longitude":2.2462858598,"stop_name":"PAUL BERT"},{"latitude":48.8554622769,"longitude":2.3786997401,"stop_name":"BASFROI"},{"latitude":48.7645927927,"longitude":2.4050714452,"stop_name":"ROUGET DE LISLE"},{"latitude":48.869432749,"longitude":2.3098851272,"stop_name":"ROND-POINT DES CHAMPS-ELYSEES - FRANKLIN D. ROOSEVELT"},{"latitude":48.8540903257,"longitude":2.3060661595,"stop_name":"ECOLE MILITAIRE"},{"latitude":48.8394357887,"longitude":2.3371049093,"stop_name":"OBSERVATOIRE - PORT ROYAL"},{"latitude":48.8388773087,"longitude":2.3199902926,"stop_name":"PLACE DE CATALOGNE"},{"latitude":48.871188311,"longitude":2.3321048353,"stop_name":"OPERA"},{"latitude":48.8737404601,"longitude":2.3279899516,"stop_name":"HAVRE - CAUMARTIN"},{"latitude":48.8733000539,"longitude":2.3276357936,"stop_name":"HAVRE - HAUSSMANN"},{"latitude":48.8517395208,"longitude":2.3308265962,"stop_name":"MICHEL DEBRE"},{"latitude":48.8629447923,"longitude":2.3142338952,"stop_name":"INVALIDES"},{"latitude":48.862294785,"longitude":2.3022607998,"stop_name":"BOSQUET - RAPP"},{"latitude":48.8493207447,"longitude":2.3549719455,"stop_name":"SAINT-GERMAIN - CARDINAL LEMOINE"},{"latitude":48.8261946591,"longitude":2.3610895038,"stop_name":"CHOISY - TOLBIAC"},{"latitude":48.8371769349,"longitude":2.3906254919,"stop_name":"CHARENTON - WATTIGNIES"},{"latitude":48.8389369493,"longitude":2.3939767074,"stop_name":"DAUMESNIL - FELIX EBOUE"},{"latitude":48.8372489025,"longitude":2.3904758007,"stop_name":"CHARENTON - WATTIGNIES"},{"latitude":48.8180626413,"longitude":2.3257950702,"stop_name":"GABRIEL PERI"},{"latitude":48.8162565999,"longitude":2.3410789535,"stop_name":"GENTILLY RER"},{"latitude":48.8134087125,"longitude":2.3804080844,"stop_name":"HOPITAL JEAN ROSTAND"},{"latitude":48.8184528901,"longitude":2.374287737,"stop_name":"MAURICE THOREZ-BARBES"},{"latitude":48.80225645,"longitude":2.3974605478,"stop_name":"FELIX FAURE"},{"latitude":48.7759784421,"longitude":2.4088532233,"stop_name":"LEON GEFFROY"},{"latitude":48.7669603901,"longitude":2.4137355746,"stop_name":"PONT DE CHOISY"},{"latitude":48.7590085259,"longitude":2.4230769066,"stop_name":"AUBERGE DE LA JEUNESSE"},{"latitude":48.8149243017,"longitude":2.3600092042,"stop_name":"PIERRE BROSSOLETTE"},{"latitude":48.7760179459,"longitude":2.339811285,"stop_name":"TOURNELLES"},{"latitude":48.7582393172,"longitude":2.3296146695,"stop_name":"ROND-POINT ROOSEVELT"},{"latitude":48.7948746323,"longitude":2.3338264936,"stop_name":"CENTRE VILLE."},{"latitude":48.7898594346,"longitude":2.336710575,"stop_name":"BLUM - BELGRAND"},{"latitude":48.9358864303,"longitude":2.3399692331,"stop_name":"L'ILE-SAINT-DENIS"},{"latitude":48.8543639784,"longitude":2.3336727493,"stop_name":"SAINT-GERMAIN-DES-PRES"},{"latitude":48.8306673521,"longitude":2.2784452459,"stop_name":"SEVERINE"},{"latitude":48.8656330272,"longitude":2.3202402126,"stop_name":"CONCORDE - COURS LA REINE"},{"latitude":48.8744328331,"longitude":2.3387670331,"stop_name":"LE PELETIER"},{"latitude":48.8542471928,"longitude":2.3380309918,"stop_name":"MAZARINE"},{"latitude":48.852593442,"longitude":2.3334277286,"stop_name":"BONAPARTE - SAINT-GERMAIN"},{"latitude":48.8528990751,"longitude":2.3365601057,"stop_name":"SEINE - BUCI"},{"latitude":48.8537618653,"longitude":2.3386029975,"stop_name":"SAINT-ANDRE DES ARTS"},{"latitude":48.8489695053,"longitude":2.3151797457,"stop_name":"OUDINOT"},{"latitude":48.8516745267,"longitude":2.3140754711,"stop_name":"SAINT-FRANCOIS-XAVIER"},{"latitude":48.8934056962,"longitude":2.2732765206,"stop_name":"HOPITAL AMERICAIN"},{"latitude":48.8526231292,"longitude":2.2984403695,"stop_name":"GENERAL DETRIE"},{"latitude":48.8487061515,"longitude":2.3709320651,"stop_name":"LYON - LEDRU ROLLIN"},{"latitude":48.8437442543,"longitude":2.3736249557,"stop_name":"GARE DE LYON"},{"latitude":48.8388408241,"longitude":2.3879041153,"stop_name":"DUGOMMIER"},{"latitude":48.8329916918,"longitude":2.3366828966,"stop_name":"Saint-Jacques"},{"latitude":48.8589561813,"longitude":2.3473612552,"stop_name":"Châtelet"},{"latitude":48.8589561813,"longitude":2.3473612552,"stop_name":"Châtelet"},{"latitude":48.8760056187,"longitude":2.3367914252,"stop_name":"SAINT-GEORGES - CHATEAUDUN"},{"latitude":48.8865296184,"longitude":2.3414384675,"stop_name":"PLACE DU TERTRE - NORVINS"},{"latitude":48.8890458016,"longitude":2.3458134598,"stop_name":"CUSTINE - RAMEY"},{"latitude":48.8416632082,"longitude":2.3872124456,"stop_name":"MAIRIE DU 12E"},{"latitude":48.8650719135,"longitude":2.3023542821,"stop_name":"ALMA - MARCEAU"},{"latitude":48.8390164545,"longitude":2.3968088159,"stop_name":"DAUMESNIL - FELIX EBOUE"},{"latitude":48.8415345386,"longitude":2.3935846792,"stop_name":"RUE DE LA GARE DE REUILLY"},{"latitude":48.8581669085,"longitude":2.3803499837,"stop_name":"VOLTAIRE - LEON BLUM"},{"latitude":48.8497348924,"longitude":2.3850276733,"stop_name":"FAIDHERBE - CHALIGNY"},{"latitude":48.8621226409,"longitude":2.3766754518,"stop_name":"SAINT-AMBROISE"},{"latitude":48.8622483784,"longitude":2.3769343575,"stop_name":"SAINT-AMBROISE"},{"latitude":48.9088248421,"longitude":2.3586597952,"stop_name":"EGLISE DE LA PLAINE"},{"latitude":48.9081599467,"longitude":2.3578278675,"stop_name":"EGLISE DE LA PLAINE"},{"latitude":48.8948328161,"longitude":2.3529429833,"stop_name":"CHAMPIONNET"},{"latitude":48.9261198567,"longitude":2.3776788496,"stop_name":"GENEVE"},{"latitude":48.8374967116,"longitude":2.2971582518,"stop_name":"CONVENTION - VAUGIRARD"},{"latitude":48.8383690358,"longitude":2.298764185,"stop_name":"ABBE GROULT"},{"latitude":48.8687585879,"longitude":2.3094086677,"stop_name":"ROND-POINT DES CHAMPS-ELYSEES"},{"latitude":48.7699150986,"longitude":2.3375266254,"stop_name":"CROIX DU SUD - CENTRE DE PNEUMOLOGIE"},{"latitude":48.7789570031,"longitude":2.3405866151,"stop_name":"HENRI THIRARD - LEON JOUHAUX"},{"latitude":48.8974637371,"longitude":2.2830311952,"stop_name":"PLACE MARIE-JEANNE BASSOT"},{"latitude":48.8370261754,"longitude":2.3522583692,"stop_name":"LES GOBELINS"},{"latitude":48.8305738397,"longitude":2.3438979559,"stop_name":"GLACIERE - AUGUSTE BLANQUI"},{"latitude":48.8069058192,"longitude":2.3919278635,"stop_name":"PARMENTIER"},{"latitude":48.8615437392,"longitude":2.3200372332,"stop_name":"ASSEMBLEE NATIONALE"},{"latitude":48.8732347898,"longitude":2.3116951749,"stop_name":"SAINT-PHILIPPE-DU-ROULE"},{"latitude":48.836433112,"longitude":2.3232042003,"stop_name":"LOSSERAND - MAINE"},{"latitude":48.874620519,"longitude":2.3213817495,"stop_name":"SAINT-AUGUSTIN"},{"latitude":48.7686802485,"longitude":2.4086935979,"stop_name":"8 MAI 1945"},{"latitude":48.7862102801,"longitude":2.340954325,"stop_name":"LE COTEAU - COURBET"},{"latitude":48.8508585925,"longitude":2.6263372094,"stop_name":"JULES FERRY"},{"latitude":48.7575417775,"longitude":2.2781609564,"stop_name":"LES GODETS"},{"latitude":48.7384680807,"longitude":2.2981994581,"stop_name":"SAUSSAYE - MIRABEAU"},{"latitude":48.7393241114,"longitude":2.3053875943,"stop_name":"COLLEGE DES RABATS"},{"latitude":48.8670394256,"longitude":2.2488560379,"stop_name":"BAGATELLE - PRE CATELAN"},{"latitude":48.8974121184,"longitude":2.3861484615,"stop_name":"PORTE DE LA VILLETTE"},{"latitude":48.8294207216,"longitude":2.2305426017,"stop_name":"PONT DE SEVRES"},{"latitude":48.8260974154,"longitude":2.3507578787,"stop_name":"BOBILLOT - TOLBIAC"},{"latitude":48.8321992774,"longitude":2.3561913315,"stop_name":"PLACE D'ITALIE - MAIRIE DU 13E"},{"latitude":48.8227183915,"longitude":2.347340586,"stop_name":"RUNGIS"},{"latitude":48.8564116359,"longitude":2.3563636132,"stop_name":"RUE VIEILLE DU TEMPLE - MAIRIE DU 4E"},{"latitude":48.8302013462,"longitude":2.3932592732,"stop_name":"BARON LE ROY"},{"latitude":48.8219417959,"longitude":2.4232218061,"stop_name":"HOPITAL NATIONAL DE SAINT-MAURICE"},{"latitude":48.8181503759,"longitude":2.433164451,"stop_name":"PASSERELLE DE SAINT-MAURICE"},{"latitude":48.8195233617,"longitude":2.4642394968,"stop_name":"JOINVILLE-LE-PONT RER"},{"latitude":48.8212748217,"longitude":2.277584795,"stop_name":"CHEVALIER DE LA BARRE"},{"latitude":48.9215075935,"longitude":2.4296328788,"stop_name":"GUTENBERG - GUYNEMER"},{"latitude":48.9209021837,"longitude":2.4538920587,"stop_name":"AUGUSTE BLANQUI"},{"latitude":48.9226517885,"longitude":2.4567735079,"stop_name":"BARBUSSE - CROIZAT"},{"latitude":48.8091163172,"longitude":2.4348487169,"stop_name":"STADE-METRO"},{"latitude":48.7986911445,"longitude":2.4540256686,"stop_name":"HENRI MONDOR - LAFERRIERE"},{"latitude":48.7538058931,"longitude":2.505701249,"stop_name":"BOISSY-SAINT-LEGER RER"},{"latitude":48.7925624023,"longitude":2.3892873236,"stop_name":"HENRI DE VILMORIN"},{"latitude":48.7926797334,"longitude":2.3881583641,"stop_name":"HENRI DE VILMORIN"},{"latitude":48.8120246893,"longitude":2.2943473773,"stop_name":"ROND-POINT GAGARINE"},{"latitude":48.8308892918,"longitude":2.3816750507,"stop_name":"THOMAS MANN"},{"latitude":48.8218452364,"longitude":2.41996862,"stop_name":"EDMOND NOCARD"},{"latitude":48.8781891555,"longitude":2.2060111815,"stop_name":"LES CHAILLIERS"},{"latitude":48.86551696,"longitude":2.3269424926,"stop_name":"CASTIGLIONE"},{"latitude":48.8668090823,"longitude":2.3616803304,"stop_name":"TURBIGO - REPUBLIQUE"},{"latitude":48.8430564612,"longitude":2.2694851293,"stop_name":"VICTORIEN SARDOU"},{"latitude":48.8639976992,"longitude":2.3514079849,"stop_name":"TURBIGO - ETIENNE MARCEL"},{"latitude":48.8405106624,"longitude":2.2297028384,"stop_name":"RHIN ET DANUBE"},{"latitude":48.8877396396,"longitude":2.462907507,"stop_name":"SQUARE STEPHENSON"},{"latitude":48.9163052384,"longitude":2.4966845458,"stop_name":"ROBERT SCHUMAN"},{"latitude":48.8840717973,"longitude":2.5008098818,"stop_name":"MEISSONIER"},{"latitude":48.8779671286,"longitude":2.4268301463,"stop_name":"FLOREAL"},{"latitude":48.9086128008,"longitude":2.427592087,"stop_name":"LYCEE ALFRED COSTES"},{"latitude":48.8755488371,"longitude":2.3997801741,"stop_name":"PELLEPORT - BELLEVILLE"},{"latitude":48.8835745208,"longitude":2.5326278806,"stop_name":"JEAN JAURES - HENRI BARBUSSE"},{"latitude":48.9326048743,"longitude":2.3554232832,"stop_name":"PLACE DE LA RESISTANCE"},{"latitude":48.8789297008,"longitude":2.4124836582,"stop_name":"LES BRUYERES"},{"latitude":48.8759915209,"longitude":2.2630791103,"stop_name":"FONDATION L. VUITTON"},{"latitude":48.8600697289,"longitude":2.2135486023,"stop_name":"VAL D'OR"},{"latitude":48.9094936165,"longitude":2.3786202571,"stop_name":"FELIX FAURE - VICTOR HUGO"},{"latitude":48.8898258783,"longitude":2.3597149972,"stop_name":"ORDENER - MARX DORMOY"},{"latitude":48.8833752451,"longitude":2.4596400379,"stop_name":"NOUVEAU CIMETIERE"},{"latitude":48.9120556765,"longitude":2.5207776395,"stop_name":"CHANZY"},{"latitude":48.9414745639,"longitude":2.3877589507,"stop_name":"CITE FLOREAL"},{"latitude":48.9729030286,"longitude":2.4170021628,"stop_name":"COLLEGE PABLO PICASSO"},{"latitude":48.7091081629,"longitude":2.3867048455,"stop_name":"PLACE HENRI DEUDON"},{"latitude":48.8575989705,"longitude":2.3485868234,"stop_name":"CHATELET"},{"latitude":48.924373511,"longitude":2.3854374656,"stop_name":"GENERAL SCHRAMM"},{"latitude":48.8669909526,"longitude":2.4179699631,"stop_name":"CENTRE DE SANTE"},{"latitude":48.8889340178,"longitude":2.4100314018,"stop_name":"PAUL BERT - CIMETIERE"},{"latitude":48.7912608687,"longitude":2.2892906256,"stop_name":"THEATRE DES SOURCES"},{"latitude":48.7405950939,"longitude":2.2562600155,"stop_name":"MOULIN DE GRAIS"},{"latitude":48.9270262997,"longitude":2.4673944637,"stop_name":"FOCH - MARNE"},{"latitude":48.7687243323,"longitude":2.2509676971,"stop_name":"CYRANO DE BERGERAC"},{"latitude":48.7646266303,"longitude":2.2658213313,"stop_name":"GENERAL DUVAL"},{"latitude":48.7673125221,"longitude":2.2795231107,"stop_name":"MAIRIE DE CHATENAY-MALABRY"},{"latitude":48.7942551078,"longitude":2.2729361507,"stop_name":"DIVISION LECLERC"},{"latitude":48.965423125,"longitude":2.3627914763,"stop_name":"ALCIDE D'ORBIGNY."},{"latitude":48.9525551788,"longitude":2.3577772855,"stop_name":"PETIT PIERREFITTE"},{"latitude":48.9092588587,"longitude":2.4675407085,"stop_name":"AVENUE MARCELLE"},{"latitude":48.7343404028,"longitude":2.2923868633,"stop_name":"BOURGOGNE"},{"latitude":48.8448531874,"longitude":2.5830830819,"stop_name":"AMPERE"},{"latitude":48.8434359687,"longitude":2.5817146951,"stop_name":"NOISY-CHAMPS RER - DESCARTES"},{"latitude":48.7227578674,"longitude":2.3026807358,"stop_name":"LES FRERES VOISIN"},{"latitude":48.7170836652,"longitude":2.2949011253,"stop_name":"RUE DES FLEURS"},{"latitude":48.7039678464,"longitude":2.3302744832,"stop_name":"PIERRE BROSSOLETTE"},{"latitude":48.883969095,"longitude":2.2346411463,"stop_name":"GARE DE PUTEAUX"},{"latitude":48.9694628384,"longitude":2.3990200598,"stop_name":"MATERNELLE EFFEL"},{"latitude":48.9671089166,"longitude":2.3979116659,"stop_name":"COLLEGE HENRI WALLON"},{"latitude":48.9636744061,"longitude":2.401019449,"stop_name":"MORILLONS - VARLIN"},{"latitude":48.8210643844,"longitude":2.3243380546,"stop_name":"PORTE D'ORLEANS - ERNEST REYER"},{"latitude":48.9632059767,"longitude":2.3438467424,"stop_name":"EGLISE DE VILLETANEUSE"},{"latitude":48.9064882546,"longitude":2.4322236789,"stop_name":"RUE DE LA GARE"},{"latitude":48.9671585642,"longitude":2.3170538706,"stop_name":"PLACE DE LA BARRE"},{"latitude":48.9593414943,"longitude":2.3274423924,"stop_name":"GARE D'EPINAY - VILLETANEUSE"},{"latitude":48.8469398623,"longitude":2.2143424977,"stop_name":"MONTRETOUT"},{"latitude":48.8471553089,"longitude":2.2140968698,"stop_name":"MONTRETOUT"},{"latitude":48.8522945414,"longitude":2.2125457218,"stop_name":"MARIE BONAPARTE"},{"latitude":48.979101724,"longitude":2.3877547243,"stop_name":"ECOLE JEAN JAURES"},{"latitude":48.8977909205,"longitude":2.206602193,"stop_name":"GOUNOD"},{"latitude":49.0033149149,"longitude":2.4143719479,"stop_name":"LES FLEURS"},{"latitude":48.9884469476,"longitude":2.3894297356,"stop_name":"LES PERREUX"},{"latitude":48.8361360063,"longitude":2.2322714776,"stop_name":"SQUARE DES FRERES FARMAN"},{"latitude":48.915376064,"longitude":2.3603669465,"stop_name":"LANDY - PONT DE SOISSONS"},{"latitude":48.831931421,"longitude":2.2341178251,"stop_name":"LYCEE E.J. MAREY"},{"latitude":48.9516165773,"longitude":2.2779530748,"stop_name":"BELVEDERE"},{"latitude":48.8338618423,"longitude":2.3570632428,"stop_name":"RUBENS - ECOLE DES ARTS ET METIERS"},{"latitude":48.9490427169,"longitude":2.2564251181,"stop_name":"ARISTIDE BRIAND"},{"latitude":48.7511256229,"longitude":2.3692377344,"stop_name":"S.E.N.I.A."},{"latitude":48.7588147653,"longitude":2.3342502993,"stop_name":"CIMETIERE DE FRESNES"},{"latitude":48.7706877851,"longitude":2.3290009486,"stop_name":"BLONDEAUX - ECOLES"},{"latitude":48.9431448154,"longitude":2.4336552052,"stop_name":"MICHELET - PARC DES EXPOSITIONS"},{"latitude":48.6903674692,"longitude":2.3517951995,"stop_name":"PLACE DE LA REPUBLIQUE"},{"latitude":48.8421317414,"longitude":2.3286355617,"stop_name":"VAVIN"},{"latitude":48.6851998068,"longitude":2.3325169139,"stop_name":"COLLEGE LES GATINES"},{"latitude":48.8993263036,"longitude":2.3209652426,"stop_name":"BOIS LE PRETRE"},{"latitude":48.905792552,"longitude":2.4808378514,"stop_name":"AUGUSTE POLISSARD"},{"latitude":48.9049833632,"longitude":2.5425106349,"stop_name":"AVENUE LADRETTE"},{"latitude":48.7874288599,"longitude":2.367464633,"stop_name":"VILLEJUIF - LOUIS ARAGON"},{"latitude":48.9142341019,"longitude":2.4334514173,"stop_name":"VOLTAIRE"},{"latitude":48.9200335533,"longitude":2.4506718193,"stop_name":"PLACE DU 19 MARS 1962"},{"latitude":48.8019391289,"longitude":2.3383295345,"stop_name":"AUGUSTE DELAUNE"},{"latitude":48.9164268726,"longitude":2.3109102584,"stop_name":"LOUIS ARMAND"},{"latitude":48.7973136025,"longitude":2.3001686761,"stop_name":"RUE FROIDE"},{"latitude":48.8456946246,"longitude":2.3733675956,"stop_name":"GARE DE LYON - DIDEROT"},{"latitude":48.9253538897,"longitude":2.3834062884,"stop_name":"SAINT-JUST"},{"latitude":48.7736649125,"longitude":2.3992767883,"stop_name":"TROIS COMMUNES"},{"latitude":48.6954509427,"longitude":2.3715660656,"stop_name":"OBSERVATOIRE CAMILLE FLAMMARION."},{"latitude":48.7435945854,"longitude":2.3649113242,"stop_name":"HANGAR N0 6"},{"latitude":48.8597465272,"longitude":2.3524964988,"stop_name":"CENTRE GEORGES POMPIDOU"},{"latitude":48.8438611626,"longitude":2.3733935528,"stop_name":"GARE DE LYON"},{"latitude":48.9332273887,"longitude":2.2937013497,"stop_name":"LE VILLAGE"},{"latitude":48.7681775109,"longitude":2.3110262183,"stop_name":"NORMANDIE"},{"latitude":48.8437048584,"longitude":2.3390112372,"stop_name":"AUGUSTE COMTE"},{"latitude":48.8283737419,"longitude":2.2749766076,"stop_name":"MAISON DE RETRAITE"},{"latitude":48.9446902434,"longitude":2.1811209527,"stop_name":"CHARLES DE GAULLE"},{"latitude":48.8409456308,"longitude":2.3332651956,"stop_name":"CAMPAGNE PREMIERE"},{"latitude":48.9173389974,"longitude":2.2254661414,"stop_name":"PARC PIERRE LAGRAVERE"},{"latitude":48.8570721426,"longitude":2.1933024491,"stop_name":"EGLISE DE BUZENVAL"},{"latitude":48.818534096,"longitude":2.1666381897,"stop_name":"FAUSSES REPOSES"},{"latitude":48.8570148887,"longitude":2.3474698385,"stop_name":"CHATELET"},{"latitude":48.832780085,"longitude":2.5310207787,"stop_name":"GEORGES MELIES"},{"latitude":48.7502535666,"longitude":2.3045245833,"stop_name":"PONT D'ANTONY"},{"latitude":48.8186122942,"longitude":2.5586237723,"stop_name":"LA DAME BLANCHE"},{"latitude":48.8523776423,"longitude":2.3434649415,"stop_name":"SAINT-MICHEL - SAINT-GERMAIN"},{"latitude":48.8093982124,"longitude":2.573484994,"stop_name":"MAIRIE DU PLESSIS-TREVISE"},{"latitude":48.9539732426,"longitude":2.2200788355,"stop_name":"BEETHOVEN"},{"latitude":48.9133295861,"longitude":2.2723656394,"stop_name":"GARE DE BOIS-COLOMBES"},{"latitude":48.8123230188,"longitude":2.4734212303,"stop_name":"PLACE D'ARMES"},{"latitude":48.8057056523,"longitude":2.4969980184,"stop_name":"LES MARRONNIERS"},{"latitude":48.8073237461,"longitude":2.5096713035,"stop_name":"CHAMPIGNY - SAINT-MAUR RER"},{"latitude":48.7879729736,"longitude":2.2586617167,"stop_name":"LA CAVEE"},{"latitude":48.8201869803,"longitude":2.5318584523,"stop_name":"CENTRE COMMERCIAL DE CHAMPIGNY-SUR-MARNE"},{"latitude":48.8283737419,"longitude":2.2749766076,"stop_name":"MAISON DE RETRAITE"},{"latitude":48.8397395597,"longitude":2.5502721677,"stop_name":"CIMETIERE DE NOISY-LE-GRAND"},{"latitude":48.7707535723,"longitude":2.4263325382,"stop_name":"PARC INTERDEPARTEMENTAL DES SPORTS"},{"latitude":48.8293104237,"longitude":2.5666602373,"stop_name":"LES RICHARDETS - CENTRE"},{"latitude":48.7899200048,"longitude":2.4529585442,"stop_name":"CRETEIL - UNIVERSITE-METRO"},{"latitude":48.8665307864,"longitude":2.5294168075,"stop_name":"LEON BLUM"},{"latitude":48.8151716421,"longitude":2.4814717708,"stop_name":"CHARLES FLOQUET - DIDEROT"},{"latitude":48.9000757172,"longitude":2.4816944299,"stop_name":"BLANQUI - CARNOT"},{"latitude":48.8224295584,"longitude":2.4919453083,"stop_name":"LES MARRONNIERS"},{"latitude":48.9075296104,"longitude":2.453780153,"stop_name":"LAMARTINE"},{"latitude":48.8138053761,"longitude":2.6213813254,"stop_name":"RUE D'EMERY"},{"latitude":48.8606510503,"longitude":2.5306345502,"stop_name":"EPI D'OR"},{"latitude":48.8188739447,"longitude":2.6326783947,"stop_name":"LES MINES"},{"latitude":48.8850176077,"longitude":2.5057188014,"stop_name":"AVENUE DU RAINCY"},{"latitude":48.8277503589,"longitude":2.6376566975,"stop_name":"CROISSY-BEAUBOURG - Z.I. PARIEST"},{"latitude":48.9030693233,"longitude":2.4809529963,"stop_name":"EGLISE DE BONDY"},{"latitude":48.8050756061,"longitude":2.3453505966,"stop_name":"LYCEE DARIUS MILHAUD - CHARLES GIDE"},{"latitude":48.8823919163,"longitude":2.524719811,"stop_name":"GAGNY RER"},{"latitude":48.8747887152,"longitude":2.551356294,"stop_name":"EMILE COSSONNEAU"},{"latitude":48.8936475432,"longitude":2.3368048978,"stop_name":"DAMREMONT - ORDENER"},{"latitude":48.8202566284,"longitude":2.467684768,"stop_name":"CARREFOUR DE LA RESISTANCE"},{"latitude":48.7167784224,"longitude":2.2959337187,"stop_name":"RUE DES FLEURS"},{"latitude":48.8276984351,"longitude":2.4756395802,"stop_name":"POLANGIS"},{"latitude":48.7450759756,"longitude":2.3031687553,"stop_name":"BLANCHE DE CASTILLE"},{"latitude":48.8085582996,"longitude":2.5518995937,"stop_name":"VETERANS"},{"latitude":48.7976451428,"longitude":2.5479363316,"stop_name":"SONNETTES"},{"latitude":48.8384731626,"longitude":2.3221552665,"stop_name":"GAITE"},{"latitude":48.8430210929,"longitude":2.3241011076,"stop_name":"PLACE DU 18 JUIN 1940 - RUE DU DEPART"},{"latitude":48.9452557713,"longitude":2.1739291484,"stop_name":"EGLISE DE SARTROUVILLE"},{"latitude":48.8996110567,"longitude":2.2397219534,"stop_name":"DIEPPE"},{"latitude":48.8968256162,"longitude":2.2404223606,"stop_name":"FAUBOURG DE L'ARCHE"},{"latitude":48.7858067845,"longitude":2.449562595,"stop_name":"LA HAYE AUX MOINES"},{"latitude":48.8750489351,"longitude":2.3062579264,"stop_name":"FRIEDLAND - HAUSSMANN"},{"latitude":48.9286715926,"longitude":2.2467186219,"stop_name":"ROBERT SCHUMAN"},{"latitude":48.927423037,"longitude":2.2363008107,"stop_name":"TENNIS"},{"latitude":48.8223478434,"longitude":2.285001619,"stop_name":"PLACE DU MARECHAL DE LATTRE DE TASSIGNY"},{"latitude":48.7407460108,"longitude":2.2535418299,"stop_name":"RIANTES CITES"},{"latitude":48.8937604435,"longitude":2.4347627719,"stop_name":"LOUISE DORY"},{"latitude":48.8905815063,"longitude":2.4521065629,"stop_name":"JEANNE D'ARC"},{"latitude":48.9383262731,"longitude":2.2638492378,"stop_name":"COEUR MOLE 1"},{"latitude":48.8085087941,"longitude":2.4509860647,"stop_name":"RUE DE MARSEILLE"},{"latitude":48.8635457772,"longitude":2.4086063338,"stop_name":"PORTE DE BAGNOLET"},{"latitude":48.907399564,"longitude":2.4488036443,"stop_name":"BOBIGNY - PABLO PICASSO"},{"latitude":48.8973090923,"longitude":2.372490301,"stop_name":"ROSA PARKS"},{"latitude":48.7672426074,"longitude":2.4707469033,"stop_name":"EUROPARC"},{"latitude":48.8977187148,"longitude":2.3384678332,"stop_name":"ANGELIQUE COMPOINT - PORTE DE MONTMARTRE"},{"latitude":48.897439486,"longitude":2.3249596701,"stop_name":"EPINETTES - POUCHET"},{"latitude":48.8148245091,"longitude":2.4218491037,"stop_name":"ECOLE VETERINAIRE DE MAISONS-ALFORT-METRO"},{"latitude":48.8030773736,"longitude":2.4860914567,"stop_name":"MAIRIE DE SAINT-MAUR"},{"latitude":48.9218122716,"longitude":2.3242720228,"stop_name":"QUAI DES GRESILLONS"},{"latitude":48.788824812,"longitude":2.4768418202,"stop_name":"VILLETTE"},{"latitude":48.9255678446,"longitude":2.3172746658,"stop_name":"RUE DES NOELS"},{"latitude":48.8215526014,"longitude":2.4140610186,"stop_name":"CHARENTON-ECOLES"},{"latitude":48.8235717842,"longitude":2.404222937,"stop_name":"ARCHEVECHE"},{"latitude":48.9481288514,"longitude":2.4380442715,"stop_name":"MUSEE DE L'AIR ET DE L'ESPACE"},{"latitude":48.9175889694,"longitude":2.3315956863,"stop_name":"QUAI DE SEINE"},{"latitude":48.8453993759,"longitude":2.3686422352,"stop_name":"PONT D'AUSTERLITZ - QUAI DE LA RAPEE"},{"latitude":48.7891652817,"longitude":2.3885765942,"stop_name":"HOTEL DE VILLE DE VITRY"},{"latitude":48.8662052889,"longitude":2.5752967705,"stop_name":"PONT DE GOURNAY"},{"latitude":48.8976909217,"longitude":2.3231194389,"stop_name":"EPINETTES - POUCHET"},{"latitude":48.8507340012,"longitude":2.4160380656,"stop_name":"ERIGNAC"},{"latitude":48.894291653,"longitude":2.2665967216,"stop_name":"ILE DE LA JATTE"},{"latitude":48.8435788238,"longitude":2.6442299428,"stop_name":"BAUDELAIRE"},{"latitude":48.8371811459,"longitude":2.2589820166,"stop_name":"PORTE DE SAINT-CLOUD - MURAT"},{"latitude":48.8811644833,"longitude":2.6298992475,"stop_name":"MAIRIE DE BROU"},{"latitude":48.8503217728,"longitude":2.260296797,"stop_name":"ALFRED CAPUS"},{"latitude":48.8576511716,"longitude":2.6450623631,"stop_name":"LES CANTINES"},{"latitude":48.8534327204,"longitude":2.2623078339,"stop_name":"RAFFET"},{"latitude":48.9469554206,"longitude":2.5242850462,"stop_name":"SEVRAN - BEAUDOTTES RER"},{"latitude":48.8787079847,"longitude":2.2842362669,"stop_name":"PORTE MAILLOT - PALAIS DES CONGRES"},{"latitude":48.6996490976,"longitude":2.3047057847,"stop_name":"RUE DE CHILLY"},{"latitude":48.9280690471,"longitude":2.4751576269,"stop_name":"QUEBEC"},{"latitude":48.9735632319,"longitude":2.5136379463,"stop_name":"PARC DES EXPOSITIONS RER"},{"latitude":48.7022949682,"longitude":2.3202393083,"stop_name":"PLACE DE LA LIBERATION"},{"latitude":48.8120246893,"longitude":2.2943473773,"stop_name":"ROND-POINT GAGARINE"},{"latitude":48.7834030208,"longitude":2.2303787276,"stop_name":"GEORGES MILLANDY"},{"latitude":48.8122277078,"longitude":2.3613824764,"stop_name":"CONVENTION - FONTAINEBLEAU"},{"latitude":48.9050071032,"longitude":2.476268671,"stop_name":"GATINE RN3"},{"latitude":48.7478818996,"longitude":2.3092967324,"stop_name":"DESCARTES"},{"latitude":48.8232005029,"longitude":2.3077725275,"stop_name":"VICTOR HUGO"},{"latitude":48.8744905659,"longitude":2.1667265475,"stop_name":"LE CHATEAU"},{"latitude":48.8442021997,"longitude":2.5261205119,"stop_name":"BRY-SUR-MARNE RER"},{"latitude":48.8804338025,"longitude":2.1817914126,"stop_name":"RUEIL - VILLE"},{"latitude":48.835450471,"longitude":2.4715350412,"stop_name":"NOGENT-SUR-MARNE RER"},{"latitude":48.8606614322,"longitude":2.540591694,"stop_name":"BLANCHEVILLE"},{"latitude":48.6949279751,"longitude":2.3768067438,"stop_name":"TERRASSE"},{"latitude":48.8534374808,"longitude":2.5170155851,"stop_name":"CENTRE BUS"},{"latitude":48.8910870192,"longitude":2.2070824848,"stop_name":"MAIRIE DE NANTERRE"},{"latitude":48.8522372046,"longitude":2.6016127168,"stop_name":"MAIRIE DE CHAMPS"},{"latitude":48.8681704426,"longitude":2.1923588865,"stop_name":"DUNANT"},{"latitude":48.8525883296,"longitude":2.6093229321,"stop_name":"MAISON DE RETRAITE"},{"latitude":48.7073767476,"longitude":2.3778347869,"stop_name":"LA PLAINE"},{"latitude":48.8488751534,"longitude":2.4956874417,"stop_name":"ROND-POINT DU GENERAL LECLERC"},{"latitude":48.8276424719,"longitude":2.3566797186,"stop_name":"VANDREZANNE"},{"latitude":48.8534374808,"longitude":2.5170155851,"stop_name":"CENTRE BUS"},{"latitude":48.8584021654,"longitude":2.5205469109,"stop_name":"PAUL DOUMER"},{"latitude":48.8639428189,"longitude":2.5503171019,"stop_name":"MAISON BLANCHE"},{"latitude":48.7637808822,"longitude":2.3694086739,"stop_name":"AUGUSTE PERRET"},{"latitude":48.8576003148,"longitude":2.4397888053,"stop_name":"WILSON - GABRIEL PERI"},{"latitude":48.7595329914,"longitude":2.3515698526,"stop_name":"MAREE"},{"latitude":48.6908299424,"longitude":2.374441281,"stop_name":"HOPITAL DE JUVISY"},{"latitude":48.8528723268,"longitude":2.4679302147,"stop_name":"ANDRE TESSIER"},{"latitude":48.6908299424,"longitude":2.374441281,"stop_name":"HOPITAL DE JUVISY"},{"latitude":48.7742844431,"longitude":2.4155957569,"stop_name":"MESANGES"},{"latitude":48.7059313804,"longitude":2.3722384307,"stop_name":"BELLE ETOILE - LA POMPE"},{"latitude":48.8766377086,"longitude":2.5526855954,"stop_name":"LE CHENAY-GAGNY RER"},{"latitude":48.7109410625,"longitude":2.3884722431,"stop_name":"CIMETIERE D'ATHIS-MONS"},{"latitude":48.8479958838,"longitude":2.4463336261,"stop_name":"LIBERATION"},{"latitude":48.7084721591,"longitude":2.3811630639,"stop_name":"SEMBAT"},{"latitude":48.8478213062,"longitude":2.4405320728,"stop_name":"MAIRIE DE VINCENNES"},{"latitude":48.8674943733,"longitude":2.4177800251,"stop_name":"CENTRE DE SANTE"},{"latitude":48.7783506104,"longitude":2.4234080544,"stop_name":"DIGUE-REVOLUTION"},{"latitude":48.8864003053,"longitude":2.2297302738,"stop_name":"EDGAR QUINET"},{"latitude":48.7778917942,"longitude":2.4553116608,"stop_name":"HOTEL DE VILLE DE CRETEIL"},{"latitude":48.8706908022,"longitude":2.4862719178,"stop_name":"MAIRIE-ROSNY SOUS BOIS-RER"},{"latitude":48.8055243821,"longitude":2.441686141,"stop_name":"REPUBLIQUE - GENERAL LECLERC"},{"latitude":48.9107408107,"longitude":2.3440309465,"stop_name":"GODILLOT"},{"latitude":48.7854890622,"longitude":2.4700593216,"stop_name":"RUE DU BARRAGE"},{"latitude":48.9326281182,"longitude":2.4247149985,"stop_name":"JEAN JAURES - DIVISION LECLERC"},{"latitude":48.785488377,"longitude":2.4535471361,"stop_name":"CROIX DES MECHES"},{"latitude":48.9039073305,"longitude":2.4713443676,"stop_name":"AVENUE DE ROSNY"},{"latitude":48.8597832275,"longitude":2.3445691244,"stop_name":"RIVOLI - PONT NEUF"},{"latitude":48.892005654,"longitude":2.2369831238,"stop_name":"La Défense (Grande Arche)"},{"latitude":48.8648370005,"longitude":2.3977102954,"stop_name":"GAMBETTA"},{"latitude":48.8800510618,"longitude":2.4156602061,"stop_name":"Mairie des Lilas"},{"latitude":48.8604553378,"longitude":2.3888105982,"stop_name":"ROQUETTE - PERE LACHAISE"},{"latitude":48.8578862813,"longitude":2.3232256299,"stop_name":"SOLFERINO - BELLECHASSE"},{"latitude":48.8570286318,"longitude":2.3038987786,"stop_name":"BOSQUET - GRENELLE"},{"latitude":48.8548693604,"longitude":2.2965455575,"stop_name":"CHAMP DE MARS"},{"latitude":48.8689354694,"longitude":2.4260380125,"stop_name":"DESCARTES"},{"latitude":48.8574729768,"longitude":2.3502484761,"stop_name":"CHATELET - HOTEL DE VILLE"},{"latitude":48.8809004282,"longitude":2.3651072183,"stop_name":"Louis Blanc"},{"latitude":48.8763289607,"longitude":2.440970371,"stop_name":"ALEXANDRE DUMAS"},{"latitude":48.8851960156,"longitude":2.1556393056,"stop_name":"Chatou-Croissy"},{"latitude":48.8656780964,"longitude":2.3211937718,"stop_name":"Concorde"},{"latitude":48.871611854,"longitude":2.4395440332,"stop_name":"BERLIOZ"},{"latitude":48.8366508282,"longitude":2.7098540585,"stop_name":"Bussy-Saint-Georges"},{"latitude":48.8539931336,"longitude":2.4703028203,"stop_name":"VERDUN"},{"latitude":48.875672486,"longitude":2.2894441645,"stop_name":"Argentine"},{"latitude":48.858123679,"longitude":2.4953751816,"stop_name":"LES ALOUETTES"},{"latitude":48.8739310943,"longitude":2.2951272517,"stop_name":"Charles de Gaulle-Etoile"},{"latitude":48.8698127534,"longitude":2.3252250683,"stop_name":"MADELEINE"},{"latitude":48.8468487689,"longitude":2.3169373108,"stop_name":"Duroc"},{"latitude":48.8005930017,"longitude":2.5480299258,"stop_name":"GROUPE SCOLAIRE ROUSSEAU"},{"latitude":48.9460472323,"longitude":2.1442516766,"stop_name":"Maisons-Laffitte"},{"latitude":48.7797633786,"longitude":2.4435791431,"stop_name":"BASE DE LOISIRS DE CRETEIL"},{"latitude":48.8497169402,"longitude":2.3489255585,"stop_name":"Maubert-Mutualité"},{"latitude":48.808496296,"longitude":2.5247659329,"stop_name":"LA CASCADE"},{"latitude":48.8273193361,"longitude":2.3205930836,"stop_name":"HOP. NOTRE-DAME DE BON SECOURS - A. CHANTIN"},{"latitude":48.844613672,"longitude":2.2938029802,"stop_name":"Commerce"},{"latitude":48.8518828941,"longitude":2.451217358,"stop_name":"HECTOR MALOT"},{"latitude":48.8484448201,"longitude":2.3959072371,"stop_name":"Nation"},{"latitude":48.7874288599,"longitude":2.367464633,"stop_name":"VILLEJUIF - LOUIS ARAGON"},{"latitude":48.7784177088,"longitude":2.3410761661,"stop_name":"HENRI THIRARD-LEON JOUHAUX"},{"latitude":48.8054986541,"longitude":2.5588672051,"stop_name":"JEAN DE LA FONTAINE"},{"latitude":48.76102559,"longitude":2.3289209125,"stop_name":"CHARCOT - ZOLA"},{"latitude":48.8853838732,"longitude":2.2641558836,"stop_name":"RUE DE L'EGLISE"},{"latitude":48.8931350408,"longitude":2.3447373887,"stop_name":"MAIRIE DU 18E - JULES JOFFRIN"},{"latitude":48.8315523026,"longitude":2.3553334432,"stop_name":"Place d'Italie"},{"latitude":48.8396821402,"longitude":2.3955841703,"stop_name":"Daumesnil (Félix Eboué)"},{"latitude":48.8395922502,"longitude":2.3016770238,"stop_name":"VAUGIRARD - FAVORITES"},{"latitude":48.8575865445,"longitude":2.3680366949,"stop_name":"Chemin Vert"},{"latitude":48.8375653345,"longitude":2.2555912744,"stop_name":"Porte de Saint-Cloud"},{"latitude":48.8453610878,"longitude":2.2979828197,"stop_name":"FONDARY"},{"latitude":48.7800313211,"longitude":2.2810593785,"stop_name":"Robinson"},{"latitude":48.8898869038,"longitude":2.3681376521,"stop_name":"RIQUET"},{"latitude":48.8204876467,"longitude":2.4853247449,"stop_name":"LA FOURCHETTE DE CHAMPIGNY"},{"latitude":48.7289783763,"longitude":2.3698355106,"stop_name":"ORLY SUD"},{"latitude":48.7821517154,"longitude":2.4644065407,"stop_name":"HENRI CARDINAUD"},{"latitude":48.7172011438,"longitude":2.2603443588,"stop_name":"COSMONAUTES-FLAUBERT"},{"latitude":48.712581874,"longitude":2.2615736041,"stop_name":"PIERRE CURIE"},{"latitude":48.8193113312,"longitude":2.5111129912,"stop_name":"REPUBLIQUE - ALEXANDRE FOURNY"},{"latitude":48.709485333,"longitude":2.2689664908,"stop_name":"LA FONTAINE"},{"latitude":48.6868987275,"longitude":2.2909887408,"stop_name":"RESIDENCE FONTANGES"},{"latitude":48.6884524675,"longitude":2.287783402,"stop_name":"DOCTEUR CATHELIN"},{"latitude":48.6899359475,"longitude":2.2886508864,"stop_name":"LES ARCADES"},{"latitude":48.7087059301,"longitude":2.2736395084,"stop_name":"MAIRIE DE CHAMPLAN"},{"latitude":48.7504332552,"longitude":2.3042526245,"stop_name":"PONT D'ANTONY"},{"latitude":48.7576243857,"longitude":2.3064775004,"stop_name":"FERNAND FENZY"},{"latitude":48.770703433,"longitude":2.3123167135,"stop_name":"LA FONTAINE"},{"latitude":48.8386880513,"longitude":2.3167226599,"stop_name":"MONTPARNASSE 2 - GARE TGV"},{"latitude":48.823689364,"longitude":2.3318237063,"stop_name":"MONTSOURIS-TOMBE ISSOIRE"},{"latitude":48.8416902151,"longitude":2.3558271591,"stop_name":"BUFFON - LA MOSQUEE"},{"latitude":48.8794732784,"longitude":2.3557180612,"stop_name":"LA FAYETTE - DUNKERQUE"},{"latitude":48.8852739845,"longitude":2.2608990323,"stop_name":"PONT DE NEUILLY"},{"latitude":48.8974534878,"longitude":2.2638798727,"stop_name":"PONT BINEAU"},{"latitude":48.9007766448,"longitude":2.2605762914,"stop_name":"PAIX - VERDUN"},{"latitude":48.9358905408,"longitude":2.238521421,"stop_name":"PLACE DU 11 NOVEMBRE"},{"latitude":48.9355400202,"longitude":2.2384811667,"stop_name":"PLACE DU 11 NOVEMBRE"},{"latitude":48.9029924371,"longitude":2.2424829467,"stop_name":"RHIN ET DANUBE"},{"latitude":48.9265692448,"longitude":2.1926183044,"stop_name":"LES BLANCHES"},{"latitude":48.905873357,"longitude":2.209390225,"stop_name":"UNIVERSITE PARIS 10"},{"latitude":48.912277593,"longitude":2.2236500062,"stop_name":"HOPITAL DE NANTERRE"},{"latitude":48.9202753291,"longitude":2.243528637,"stop_name":"EGALITE"},{"latitude":48.9444335938,"longitude":2.2455040991,"stop_name":"CALAIS"},{"latitude":48.9403890645,"longitude":2.2448973694,"stop_name":"CHARLES DE GAULLE - HENRI BARBUSSE"},{"latitude":48.9243706209,"longitude":2.2200776181,"stop_name":"JAURES - BRANCHARD"},{"latitude":48.9423442333,"longitude":2.19513906,"stop_name":"CLEMENCEAU"},{"latitude":48.9448926641,"longitude":2.1778868671,"stop_name":"PICARDIE"},{"latitude":48.9401690428,"longitude":2.1673560533,"stop_name":"JEAN MERMOZ"},{"latitude":48.9418033334,"longitude":2.201402468,"stop_name":"CONDORCET"},{"latitude":48.9449329216,"longitude":2.1811475075,"stop_name":"CHARLES DE GAULLE"},{"latitude":48.8912519045,"longitude":2.2383883915,"stop_name":"LA DEFENSE-METRO-RER-TRAMWAY"},{"latitude":48.8778726699,"longitude":2.1964467346,"stop_name":"FABRE D'EGLANTINE"},{"latitude":48.8804507608,"longitude":2.2202041476,"stop_name":"LIBERTE - PLAIDEURS"},{"latitude":48.8824308998,"longitude":2.2232384756,"stop_name":"FELIX FAURE"},{"latitude":48.8887521236,"longitude":2.2367849896,"stop_name":"LES BOUVETS"},{"latitude":48.8904629655,"longitude":2.2407477151,"stop_name":"LA DEFENSE-METRO-RER-TRAMWAY"},{"latitude":48.8723318026,"longitude":2.1925379968,"stop_name":"SAINT-EXUPERY"},{"latitude":48.8626032799,"longitude":2.1965426816,"stop_name":"LES MAZURIERES"},{"latitude":48.8767730089,"longitude":2.201423,"stop_name":"EUGENE SUE"},{"latitude":48.8781891555,"longitude":2.2060111815,"stop_name":"LES CHAILLIERS"},{"latitude":48.8809782258,"longitude":2.2368545622,"stop_name":"WALLACE - JAURES"},{"latitude":48.8798547735,"longitude":2.2368022332,"stop_name":"BAS ROGERS"},{"latitude":48.8775246849,"longitude":2.2340134981,"stop_name":"DE PRESSENSE"},{"latitude":48.8779360036,"longitude":2.182303055,"stop_name":"MAIRIE DE RUEIL"},{"latitude":48.8707940062,"longitude":2.224980669,"stop_name":"MAIRIE DE SURESNES"},{"latitude":48.8714820895,"longitude":2.2304696603,"stop_name":"PAGES"},{"latitude":48.8849612544,"longitude":2.250433527,"stop_name":"BELLINI"},{"latitude":48.8806020712,"longitude":2.2384223288,"stop_name":"WALLACE - JEAN JAURES"},{"latitude":48.8965235997,"longitude":2.2149473218,"stop_name":"PREFECTURE DES HAUTS-DE-SEINE"},{"latitude":48.8630764699,"longitude":2.2015814719,"stop_name":"STALINGRAD"},{"latitude":48.8729901826,"longitude":2.202155005,"stop_name":"LES GERANIUMS"},{"latitude":48.8648345795,"longitude":2.2340251408,"stop_name":"LES MOULINS - CAMPING"},{"latitude":48.8469398623,"longitude":2.2143424977,"stop_name":"MONTRETOUT"},{"latitude":48.8386120072,"longitude":2.1862191968,"stop_name":"GARE DE GARCHES - MARNES LA COQUETTE"},{"latitude":48.9181794034,"longitude":2.2208961653,"stop_name":"HAUTES PATURES"},{"latitude":48.9163629113,"longitude":2.219754836,"stop_name":"PERIPARC"},{"latitude":48.9068439824,"longitude":2.2180858909,"stop_name":"DEQUEANT"},{"latitude":48.8954346021,"longitude":2.197203208,"stop_name":"NANTERRE-VILLE RER"},{"latitude":48.8906064417,"longitude":2.1679273977,"stop_name":"CLAUDE MONET"},{"latitude":48.8451157708,"longitude":2.1983331052,"stop_name":"LES CROISSANTS"},{"latitude":48.8470027632,"longitude":2.1980012293,"stop_name":"TAHERE"},{"latitude":48.8595564422,"longitude":2.1819902053,"stop_name":"COLLEGE PASSY - BUZENVAL"},{"latitude":48.8717900977,"longitude":2.1833977275,"stop_name":"ZURICH"},{"latitude":48.8491543612,"longitude":2.2011003952,"stop_name":"FOCH - 19 JANVIER"},{"latitude":48.8839168256,"longitude":2.1787284502,"stop_name":"BAUDIN"},{"latitude":48.8881045986,"longitude":2.1926438712,"stop_name":"FOCH"},{"latitude":48.84385426,"longitude":2.4629237598,"stop_name":"FONTENAY-SOUS-BOIS RER"},{"latitude":48.8354579928,"longitude":2.4728284449,"stop_name":"NOGENT-SUR-MARNE RER - PIERRE SEMARD"},{"latitude":48.8397141743,"longitude":2.5224551646,"stop_name":"CHATEAU"},{"latitude":48.832551332,"longitude":2.5279704268,"stop_name":"HOPITAL SAINT-CAMILLE"},{"latitude":48.8404564182,"longitude":2.5190402234,"stop_name":"RUE DE LA MARNE"},{"latitude":48.8365194371,"longitude":2.4797475626,"stop_name":"RUE DE BEAUTE"},{"latitude":48.8359302372,"longitude":2.5106240896,"stop_name":"PLACE BEAUFRANCHET"},{"latitude":48.8440852326,"longitude":2.5262017872,"stop_name":"BRY-SUR-MARNE RER"},{"latitude":48.8409315873,"longitude":2.5255775804,"stop_name":"CIMETIERE - FUNERARIUM DE BRY"},{"latitude":48.9093418091,"longitude":2.5263852358,"stop_name":"SALENGRO"},{"latitude":48.9057304674,"longitude":2.5011100121,"stop_name":"JEAN-BAPTISTE CLEMENT - JAURES"},{"latitude":48.8968720198,"longitude":2.4322605788,"stop_name":"AVENUE DE METZ"},{"latitude":48.9791495124,"longitude":2.3804780611,"stop_name":"PAUL VALERY"},{"latitude":48.9715134689,"longitude":2.3956645213,"stop_name":"PLEIN MIDI"},{"latitude":48.9041661946,"longitude":2.3726994532,"stop_name":"LA HAIE COQ"},