{"@context": {"@vocab": "http://www.semanticweb.org/joula/ontologies/2021/2/projetWeb/", "@base": "http://data.org/", "nom": "name", "lat": "lat", "long": "lng", "ville": "ville", "place": "place"}, "features": [{"records": [{"fields": {"nombrevelosdisponibles": 9, "nombreemplacementsactuels": 16, "nom": "Musée Beaux-Arts", "nombreemplacementsdisponibles": 7, "coordonnees": [48.109601, -1.67408], "@type": "station", "place": "station", "ville": "Rennes", "lat": 48.109601, "long": -1.67408}, "type": "Feature"}, {"fields": {"nombrevelosdisponibles": 13, "nombreemplacementsactuels": 24, "nom": "Champs Libres", "nombreemplacementsdisponibles": 11, "coordonnees": [48.105537, -1.674328], "@type": "station", "place": "station", "ville": "Rennes", "lat": 48.105537, "long": -1.674328}, "type": "Feature"}, {"fields": {"nombrevelosdisponibles": 14, "nombreemplacementsactuels": 24, "nom": "Brest - Verdun", "nombreemplacementsdisponibles": 10, "coordonnees": [48.113009, -1.693264], "@type": "station", "place": "station", "ville": "Rennes", "lat": 48.113009, "long": -1.693264}, "type": "Feature"}, {"fields": {"nombrevelosdisponibles": 11, "nombreemplacementsactuels": 20, "nom": "Marbeuf", "nombreemplacementsdisponibles": 9, "coordonnees": [48.111749, -1.702077], "@type": "station", "place": "station", "ville": "Rennes", "lat": 48.111749, "long": -1.702077}, "type": "Feature"}, {"fields": {"nombrevelosdisponibles": 13, "nombreemplacementsactuels": 24, "nom": "Plaine de Baud", "nombreemplacementsdisponibles": 11, "coordonnees": [48.112461, -1.643674], "@type": "station", "place": "station", "ville": "Rennes", "lat": 48.112461, "long": -1.643674}, "type": "Feature"}, {"fields": {"nombrevelosdisponibles": 8, "nombreemplacementsactuels": 17, "nom": "Gros-Chêne", "nombreemplacementsdisponibles": 9, "coordonnees": [48.126795, -1.665101], "@type": "station", "place": "station", "ville": "Rennes", "lat": 48.126795, "long": -1.665101}, "type": "Feature"}, {"fields": {"nombrevelosdisponibles": 13, "nombreemplacementsactuels": 29, "nom": "Painlevé", "nombreemplacementsdisponibles": 16, "coordonnees": [48.123506, -1.659762], "@type": "station", "place": "station", "ville": "Rennes", "lat": 48.123506, "long": -1.659762}, "type": "Feature"}, {"fields": {"nombrevelosdisponibles": 12, "nombreemplacementsactuels": 29, "nom": "Joliot-Curie - Chateaubriand", "nombreemplacementsdisponibles": 17, "coordonnees": [48.124389, -1.651203], "@type": "station", "place": "station", "ville": "Rennes", "lat": 48.124389, "long": -1.651203}, "type": "Feature"}, {"fields": {"nombrevelosdisponibles": 0, "nombreemplacementsactuels": 1, "nom": "La Poterie", "nombreemplacementsdisponibles": 1, "coordonnees": [48.087282, -1.644121], "@type": "station", "place": "station", "ville": "Rennes", "lat": 48.087282, "long": -1.644121}, "type": "Feature"}, {"fields": {"nombrevelosdisponibles": 14, "nombreemplacementsactuels": 20, "nom": "Pont de Strasbourg", "nombreemplacementsdisponibles": 6, "coordonnees": [48.109859, -1.656028], "@type": "station", "place": "station", "ville": "Rennes", "lat": 48.109859, "long": -1.656028}, "type": "Feature"}], "type": "FeatureCollection", "name": "Stations de velos Rennes"}]}